city_cn,city,city_id,province_cn,province,tier,lat,lng,population,GDP,GDP_growth_2019,GDP_2020Q1,GDP_pc,GDP_growth_rate
北京市,Beijing,110000,北京市,Beijing,Tier 1,39.91092454729957,116.4133836971231,2153.6,35371.3,6.1,7462.2,16.424266344725112,0.8438705956524074
天津市,Tianjin,120000,天津市,Tianjin,new Tier 1,39.093667843403956,117.2095232146708,1561.83,14104.0,4.8,2874.35,9.030432249348522,0.8151871809415768
石家庄市,Shijiazhuang,130100,河北省,Hebei,Tier 2,38.0483119268727,114.52153190157443,1039.42,5809.9,6.7,1349.4,5.5895595620634575,0.9290349231484192
唐山市,Tangshan,130200,河北省,Hebei,Tier 3,39.63658372414733,118.1864594720398,796.4,6890.0,7.3,1375.2,8.65143144148669,0.7983744557329463
秦皇岛市,Qinhuangdao,130300,河北省,Hebei,Tier 3,39.941748102377936,119.60853063334328,314.63,1612.02,6.7,352.09,5.123541938149573,0.8736616171015248
邯郸市,Handan,130400,河北省,Hebei,Tier 3,36.631262731204046,114.5456282282352,954.97,3486.0,7.2,788.4,3.650376451616281,0.9046471600688468
邢台市,Xingtai,130500,河北省,Hebei,Tier 3,37.076685950966095,114.5114622561298,739.52,2119.96,7.0,432.85,2.86667027260926,0.8167135228966584
保定市,Baoding,130600,河北省,Hebei,Tier 2,38.879987768455344,115.47146383768579,939.91,3224.0,6.7,750.4,3.4301156493706846,0.9310173697270471
张家口市,Zhangjiakou,130700,河北省,Hebei,Tier 4,40.7732372026915,114.89257223145165,442.33,1551.06,6.9,289.12,3.5065674948567813,0.7456062305777984
承德市,Chengde,130800,河北省,Hebei,Tier 4,40.957856012338034,117.9693975099668,358.27,1471.0,6.5,285.4,4.1058419627655125,0.7760707002039429
沧州市,Cangzhou,130900,河北省,Hebei,Tier 3,38.31021514110704,116.84558075595017,754.43,3588.0,6.9,823.0,4.755908434182098,0.9175027870680045
廊坊市,Langfang,131000,河北省,Hebei,Tier 2,39.54336666275853,116.69058173342549,492.05,3196.0,,,6.495274870439996,
衡水市,Hengshui,131100,河北省,Hebei,Tier 4,37.745191408077424,115.6754061376161,448.6,1504.9,6.8,294.5,3.3546589389210877,0.7827762642036015
太原市,Taiyuan,140100,山西省,Shanxi,Tier 2,37.87698902884778,112.55639149167204,446.19,4028.51,6.6,849.61,9.028687330509424,0.8435972605256037
大同市,Datong,140200,山西省,Shanxi,Tier 4,40.0824687161612,113.30643625858623,346.3,1318.8,6.7,285.8,3.8082587352006927,0.8668486502881408
阳泉市,Yangquan,140300,山西省,Shanxi,Tier 5,37.862360847859385,113.58761666287546,141.75,718.9,5.0,162.5,5.071604938271605,0.9041591320072333
长治市,Changzhi,140400,山西省,Shanxi,Tier 4,36.2012683721548,113.12255886984902,347.8,1652.1,6.0,368.6,4.750143760782058,0.8924399249440108
晋城市,Jincheng,140500,山西省,Shanxi,Tier 5,35.49628458647257,112.85857823132879,235.3,1362.4,6.5,300.5,5.790055248618785,0.8822665883734585
朔州市,Shuozhou,140600,山西省,Shanxi,Tier 5,39.337108370541735,112.4393709396677,178.45,1061.7,6.5,228.0,5.949565704679182,0.8589997174343035
晋中市,Jinzhong,140700,山西省,Shanxi,Tier 4,37.69283940975971,112.75959475565928,338.9484,1460.0,6.3,291.7,4.307440306548135,0.7991780821917808
运城市,Yuncheng,140800,山西省,Shanxi,Tier 4,35.032706912909234,111.01338945447924,537.26,1562.9,6.3,317.0,2.9090198414175634,0.8113123040501631
忻州市,Xinzhou,140900,山西省,Shanxi,Tier 4,38.42238338517772,112.74062416023848,317.29,1001.6,5.4,217.7,3.156733587569731,0.8694089456869009
临汾市,Linfen,141000,山西省,Shanxi,Tier 4,36.093741895419726,111.52553022403072,450.84,1452.6,6.0,299.4,3.2219856268299174,0.8244527054935977
吕梁市,Lvliang,141100,山西省,Shanxi,Tier 4,37.524497749577115,111.15044967529184,389.09,1512.1,5.7,316.0,3.886247397774294,0.8359235500297599
呼和浩特市,Hohhot,150100,内蒙古自治区,Neimenggu,Tier 3,40.848422997113474,111.75550856170946,313.7,2791.5,5.5,632.53,8.89862926362767,0.9063657531792942
包头市,Baotou,150200,内蒙古自治区,Neimenggu,Tier 4,40.66292878826139,109.84654350721243,289.7,2714.5,6.0,588.53,9.370037970314119,0.8672389021919322
乌海市,Wuhai,150300,内蒙古自治区,Neimenggu,Tier 5,39.6620063648907,106.80039104999656,56.61,550.95,9.5,123.52,9.732379438261793,0.89677829204102
赤峰市,Chifeng,150400,内蒙古自治区,Neimenggu,Tier 5,42.261686103411606,118.89552039751949,433.09,1708.4,5.1,363.31,3.9446766261054287,0.8506438773121049
通辽市,Tongliao,150500,内蒙古自治区,Neimenggu,Tier 5,43.657980083916655,122.25052178737631,313.88,1267.26,4.0,243.18,4.037402829106665,0.767577292741821
鄂尔多斯市,Ordos,150600,内蒙古自治区,Neimenggu,Tier 4,39.61448231394889,109.78744317923599,208.76,3605.0,4.0,733.96,17.26863383789998,0.8143800277392511
呼伦贝尔市,Hulunbuir,150700,内蒙古自治区,Neimenggu,Tier 5,49.21844647556481,119.77237049946636,253.41,1193.03,2.7,208.19,4.70790418689081,0.6980210053393461
巴彦淖尔市,Bayannur,150800,内蒙古自治区,Neimenggu,Tier 5,40.7493594895728,107.39439808372492,169.4,875.0,5.2,147.85,5.165289256198347,0.6758857142857143
乌兰察布市,Ulanqab,150900,内蒙古自治区,Neimenggu,Tier 5,41.00074832767381,113.13946767446329,209.02,808.4,6.2,181.94,3.8675724811022865,0.900247402276101
兴安盟,Xinganmeng,152200,内蒙古自治区,Neimenggu,Tier 5,46.088463713218964,122.0443645258252,161.13,520.06,7.1,88.68,3.227580214733445,0.6820751451755568
锡林郭勒盟,Xilinguole,152500,内蒙古自治区,Neimenggu,Tier 5,43.93942266533856,116.05439144074572,105.83,798.59,3.4,156.08,7.545969951809506,0.7817778835197035
阿拉善盟,Alashanmeng,152900,内蒙古自治区,Neimenggu,Tier 5,38.85827588305696,105.73537746449358,24.94,295.31,5.9,64.21,11.840817963111467,0.8697301141173681
沈阳市,Shenyang,210100,辽宁省,Liaoning,new Tier 1,41.683830069190655,123.47109664482264,832.2,6470.3,4.2,1284.3,7.77493391011776,0.7939662766795975
大连市,Dalian,210200,辽宁省,Liaoning,Tier 2,38.918953666785605,121.62163148459284,700.2,7001.7,6.5,1483.2,9.999571550985431,0.8473370752817173
鞍山市,Anshan,210300,辽宁省,Liaoning,Tier 3,41.11505359694933,123.00137251399408,358.46,1745.3,6.1,350.7,4.868883557440161,0.8037586661318971
抚顺市,Fushun,210400,辽宁省,Liaoning,Tier 4,41.885969593056934,123.96437461561449,206.7,847.1,-3.6,178.6,4.098209966134495,0.843347892810766
本溪市,Benxi,210500,辽宁省,Liaoning,Tier 5,41.492916460552905,123.69250712420832,167.36,781.1,3.5,169.1,4.667184512428298,0.8659582639866854
丹东市,Dandong,210600,辽宁省,Liaoning,Tier 4,40.00640870559368,124.3615472815908,238.0,768.0,2.0,146.9,3.226890756302521,0.7651041666666667
锦州市,Jinzhou,210700,辽宁省,Liaoning,Tier 4,41.10093149946208,121.1325963005552,293.4,1073.0,2.5,208.8,3.657123381049762,0.7783783783783784
营口市,Yingkou,210800,辽宁省,Liaoning,Tier 4,40.67313683826707,122.24157466449694,243.1,1328.2,7.0,264.0,5.463595228301111,0.795060984791447
阜新市,Fuxin,210900,辽宁省,Liaoning,Tier 5,42.02802190131842,121.67640799865808,183.7,488.1,6.4,99.6,2.6570495372890583,0.8162261831591886
辽阳市,Liaoyang,211000,辽宁省,Liaoning,Tier 5,41.27416129045421,123.24336640651319,183.1,831.0,2.5,165.5,4.538503549972693,0.7966305655836342
盘锦市,Panjin,211100,辽宁省,Liaoning,Tier 4,41.12587528873715,122.0774900902138,144.0,1280.9,9.0,284.4,8.895138888888889,0.8881255367319852
铁岭市,Tieling,211200,辽宁省,Liaoning,Tier 5,42.22994799718447,123.73236520917769,289.0,640.0,2.9,124.7,2.2145328719723185,0.779375
朝阳市,Chaoyang,211300,辽宁省,Liaoning,Tier 5,41.579820864755675,120.45749949793276,334.9,843.1,5.3,169.4,2.51746790086593,0.803700628632428
葫芦岛市,Huludao,211400,辽宁省,Liaoning,Tier 4,40.71736443636189,120.8433983399283,275.8,807.1,5.3,152.9,2.9263959390862944,0.7577747491017223
长春市,Changchun,220100,吉林省,Jilin,Tier 2,43.82195350104314,125.33060207590692,753.8,5904.1,3.0,1210.6,7.832448925444416,0.8201758100303178
吉林市,Jilin,220200,吉林省,Jilin,Tier 4,43.84356783457924,126.5556345049548,411.6,1416.6,1.5,,3.441690962099125,
四平市,Siping,220300,吉林省,Jilin,Tier 5,43.171993571561,124.35648155715893,318.2,796.2,4.5,,2.5021998742928977,
辽源市,Liaoyuan,220400,吉林省,Jilin,Tier 5,42.89405500574631,125.15042516688749,116.547,410.38,2.0,,3.5211545556728185,
通化市,Tonghua,220500,吉林省,Jilin,Tier 5,41.733815801613424,125.94660627598029,214.74,725.8,4.3,,3.3799012759616276,
白山市,Baishan,220600,吉林省,Jilin,Tier 5,41.93962720532889,126.42963008937572,116.5,,3.8,,,
松原市,Songyuan,220700,吉林省,Jilin,Tier 5,45.14740419341382,124.83148187569292,274.55,729.78,2.6,,2.6580950646512473,
白城市,Baicheng,220800,吉林省,Jilin,Tier 5,45.62550435999602,122.8455906084976,188.5,491.55,0.0,,2.6076923076923078,
延边朝鲜族自治州,Yanbian,222400,吉林省,Jilin,Tier 4,42.91574303372182,129.47737632022742,207.2,723.37,2.2,159.32,3.491167953667954,0.8809875997069273
哈尔滨市,Harbin,230100,黑龙江省,Heilongjiang,Tier 2,45.80882582795218,126.54161509031664,1076.3,5249.4,4.4,906.3,4.877264703149679,0.690593210652646
齐齐哈尔市,Qiqihar,230200,黑龙江省,Heilongjiang,Tier 4,47.3599771860153,123.92457086841536,526.7,1128.9,6.0,192.5,2.1433453578887414,0.682079900788378
鸡西市,Jixi,230300,黑龙江省,Heilongjiang,Tier 5,45.300872317823895,130.97561865876668,169.4,552.0,4.6,71.3,3.258559622195986,0.5166666666666666
鹤岗市,Hegang,230400,黑龙江省,Heilongjiang,Tier 5,47.35605615768509,130.3044328986694,98.5,336.4,3.7,58.5,3.415228426395939,0.6956004756242569
双鸭山市,Shuangyashan,230500,黑龙江省,Heilongjiang,Tier 5,46.65318589588607,131.16534168078073,140.7,476.4,4.8,72.4,3.3859275053304905,0.6078925272879934
大庆市,Daqing,230600,黑龙江省,Heilongjiang,Tier 3,46.59363317672175,125.1086576340204,272.0,2568.3,4.0,519.6,9.442279411764707,0.8092512556944282
伊春市,Yichun,230700,黑龙江省,Heilongjiang,Tier 5,47.733318457230936,128.84754638019822,112.436,298.841,5.5,43.5,2.6578764808424347,0.5822494236065332
佳木斯市,Jiamusi,230800,黑龙江省,Heilongjiang,Tier 5,46.80568999085779,130.327359092573,232.0,762.9,3.6,103.6,3.288362068965517,0.5431904574649364
七台河市,Qitaihe,230900,黑龙江省,Heilongjiang,Tier 5,45.77630032154785,131.01154459102744,76.97,231.33,3.8,46.3,3.005456671430428,0.8005879047248519
牡丹江市,Mudanjiang,231000,黑龙江省,Heilongjiang,Tier 5,44.55624570898632,129.63953977834691,250.4,825.0,4.2,146.5,3.2947284345047922,0.7103030303030303
黑河市,Heihe,231100,黑龙江省,Heilongjiang,Tier 5,50.25127231175014,127.53548988621854,158.1,578.9,6.0,80.2,3.661606578115117,0.554154430817067
绥化市,Suihua,231200,黑龙江省,Heilongjiang,Tier 5,46.6600321798244,126.9753568753013,521.7,1101.1,3.5,157.5,2.110599961663791,0.5721551176096631
大兴安岭地区,Daxinganling,232700,黑龙江省,Heilongjiang,Tier 5,50.420025955027846,124.15292785448057,41.683,138.6,5.1,21.9,3.325096562147638,0.6320346320346321
上海市,Shanghai,310000,上海市,Shanghai,Tier 1,31.23592904225201,121.48053886017652,2428.14,38155.32,6.0,7856.62,15.713805628999976,0.823646086574559
南京市,Nanjing,320100,江苏省,Jiangsu,new Tier 1,32.064652885618464,118.80242172124584,850.0,14030.15,7.8,3247.41,16.50605882352941,0.9258375712305286
无锡市,Wuxi,320200,江苏省,Jiangsu,Tier 2,31.498809732685714,120.318583288106,659.15,11852.32,6.7,2465.24,17.981218235606462,0.8319856365673556
徐州市,Xuzhou,320300,江苏省,Jiangsu,Tier 2,34.212666550113056,117.29057543439451,882.56,7151.35,6.0,1395.98,8.102961838288616,0.7808204045390031
常州市,Changzhou,320400,江苏省,Jiangsu,Tier 2,31.815795653327843,119.98148471327892,473.6,7400.9,6.8,1468.43,15.626900337837837,0.7936494210163629
苏州市,Suzhou,320500,江苏省,Jiangsu,new Tier 1,31.30356407444177,120.59241222959322,1075.0,19235.8,5.6,3743.93,17.893767441860465,0.7785337755643124
南通市,Nantong,320600,江苏省,Jiangsu,Tier 2,31.986549431200892,120.90159173866184,731.8,9383.4,6.2,2030.78,12.822355834927576,0.8656904746680308
连云港市,Lianyungang,320700,江苏省,Jiangsu,Tier 3,34.60224952526725,119.22862133316609,451.1,3139.29,6.0,614.41,6.959188649966747,0.7828649153152464
淮安市,Huaian,320800,江苏省,Jiangsu,Tier 3,33.61629530103313,119.02148367070623,493.26,3871.21,6.6,801.78,7.84821392369136,0.8284541525776178
盐城市,Yancheng,320900,江苏省,Jiangsu,Tier 3,33.3551009176262,120.167544265761,720.89,5702.3,5.1,1222.78,7.9100833691686665,0.857745120390018
扬州市,Yangzhou,321000,江苏省,Jiangsu,Tier 3,32.40067693609037,119.41941890822996,454.9,5850.08,6.8,1275.64,12.860145086832272,0.8722205508300742
镇江市,Zhenjiang,321100,江苏省,Jiangsu,Tier 3,32.19471592052375,119.43048944567384,320.35,4127.32,5.8,978.1,12.883783361947868,0.947927468672165
泰州市,Taizhou,321200,江苏省,Jiangsu,Tier 3,32.4606750493083,119.92956633785481,463.61,5133.36,6.4,1143.05,11.072582558616077,0.8906836847600792
宿迁市,Suqian,321300,江苏省,Jiangsu,Tier 3,33.967749715690076,118.28157403570835,493.79,3099.23,7.0,589.92,6.276413050082018,0.7613762128012441
杭州市,Hangzhou,330100,浙江省,Zhejiang,new Tier 1,30.253082981693467,120.2155118037217,1036.0,15373.0,6.8,3379.1,14.838803088803088,0.8792298185129773
宁波市,Ningbo,330200,浙江省,Zhejiang,Tier 2,29.86603304586605,121.62857249434141,854.2,11985.0,6.8,2463.8,14.030671973776633,0.8222945348352108
温州市,Wenzhou,330300,浙江省,Zhejiang,Tier 2,28.001085404472214,120.70647689035565,930.0,6606.1,8.2,1352.7,7.1033333333333335,0.8190611707361378
嘉兴市,Jiaxing,330400,浙江省,Zhejiang,Tier 2,30.750974830920143,120.76355182586005,480.0,5370.32,7.0,1150.1,11.188166666666666,0.856634241534955
湖州市,Huzhou,330500,浙江省,Zhejiang,Tier 3,30.898963937294184,120.09451660915786,306.0,3122.4,7.9,655.0,10.203921568627452,0.8390981296438637
绍兴市,Shaoxing,330600,浙江省,Zhejiang,Tier 2,30.036369311306892,120.58547847885336,505.7,5781.0,7.2,1224.7,11.431678860984773,0.8473966441792078
金华市,Jinhua,330700,浙江省,Zhejiang,Tier 2,29.084639385513697,119.65343619052915,562.4,4559.91,6.5,922.3,8.107948079658605,0.8090510558322422
衢州市,Quzhou,330800,浙江省,Zhejiang,Tier 4,28.975545802265025,118.86659674035565,221.8,1573.51,6.7,323.2,7.094274120829576,0.8216026590234571
舟山市,Zhoushan,330900,浙江省,Zhejiang,Tier 3,29.99091168016034,122.21355631852043,117.6,1371.6,9.2,316.5,11.66326530612245,0.9230096237970254
台州市,Taizhou,331000,浙江省,Zhejiang,Tier 2,28.662194055996146,121.42743470427969,615.0,5134.05,5.1,1023.9,8.348048780487805,0.7977327840593683
丽水市,Lishui,331100,浙江省,Zhejiang,Tier 4,28.473278180563412,119.9295730584414,221.3,1476.61,8.3,314.6,6.672435607772254,0.8522223200438844
合肥市,Hefei,340100,安徽省,Anhui,new Tier 1,31.82657783368689,117.23344266497664,818.9,9409.4,7.6,1882.67,11.490291854927342,0.8003358343783876
芜湖市,Wuhu,340200,安徽省,Anhui,Tier 3,31.358536655799266,118.43943137653523,377.8,3618.26,8.2,778.26,9.57718369507676,0.8603693488030157
蚌埠市,Bengbu,340300,安徽省,Anhui,Tier 3,32.921523704350825,117.39551332813694,341.2,2057.17,5.1,425.37,6.029220398593201,0.8270974202423718
淮南市,Huainan,340400,安徽省,Anhui,Tier 4,32.63184739905333,117.00638885071615,390.8,1296.2,5.2,271.2,3.316786079836233,0.836907884585712
马鞍山市,Maanshan,340500,安徽省,Anhui,Tier 3,31.676265597609106,118.5135795794315,229.14,2111.0,8.0,457.8,9.212708387885137,0.8674561819043107
淮北市,Huaibei,340600,安徽省,Anhui,Tier 4,33.961656300276324,116.8045372670298,227.0,1077.9,3.0,232.4,4.7484581497797365,0.8624176639762501
铜陵市,Tongling,340700,安徽省,Anhui,Tier 4,30.951233239913392,117.8184767944575,164.1,960.2,-1.7,200.1,5.851310176721512,0.8335763382628618
安庆市,Anqing,340800,安徽省,Anhui,Tier 3,30.53095656804304,117.0636039049188,472.3,2380.5,7.0,494.7,5.040228668219352,0.8312539382482671
黄山市,Huangshan,341000,安徽省,Anhui,Tier 4,29.721889786591692,118.3454372531478,142.1,818.0,7.7,168.83,5.756509500351865,0.8255745721271395
滁州市,Chuzhou,341100,安徽省,Anhui,Tier 3,32.26127087204081,118.3394061359658,414.7,2909.1,9.7,627.9,7.014950566674704,0.8633598020006188
阜阳市,Fuyang,341200,安徽省,Anhui,Tier 3,32.896060994852206,115.8204361249132,1077.3,2705.0,9.0,578.0,2.510906896871809,0.8547134935304991
宿州市,Suzhou,341300,安徽省,Anhui,Tier 3,33.652095326452134,116.97054394561262,658.27,1978.75,8.7,423.16,3.0059853859358623,0.8554087176247631
六安市,Luan,341500,安徽省,Anhui,Tier 3,31.741450815322555,116.52640966418569,487.3,1620.1,8.4,350.02,3.3246460086189202,0.8641935682982532
亳州市,Bozhou,341600,安徽省,Anhui,Tier 4,33.850642695788835,115.78446321127451,526.3,1749.0,9.4,391.6,3.32319969599088,0.8955974842767296
池州市,Chizhou,341700,安徽省,Anhui,Tier 4,30.67088379076453,117.49842096159624,148.5,831.7,7.9,177.2,5.600673400673401,0.8522303715281951
宣城市,Xuancheng,341800,安徽省,Anhui,Tier 4,30.94660154529291,118.76553424276743,266.1,1561.3,7.8,335.3,5.867343104096204,0.8590277332991738
福州市,Fuzhou,350100,福建省,Fujian,Tier 2,26.08042942069808,119.30346983853998,780.0,9392.3,7.9,1838.94,12.041410256410256,0.78316919178476
厦门市,Xiamen,350200,福建省,Fujian,Tier 2,24.485406605176305,118.09643549976653,429.0,5995.04,7.9,1318.02,13.974452214452214,0.879406976433852
莆田市,Putian,350300,福建省,Fujian,Tier 3,25.459865455922714,119.01452097812651,291.0,2595.39,6.6,671.73,8.918865979381442,1.035266376151561
三明市,Sanming,350400,福建省,Fujian,Tier 4,26.26973651599184,117.64552116782144,259.0,2601.56,8.0,608.02,10.044633204633204,0.9348544719322253
泉州市,Quanzhou,350500,福建省,Fujian,Tier 2,24.87995233049832,118.68244626680422,874.0,9946.66,8.0,1997.64,11.380617848970251,0.8033410210060463
漳州市,Zhangzhou,350600,福建省,Fujian,Tier 3,24.51892979117087,117.65357645298785,516.0,4741.83,6.5,1028.06,9.189593023255814,0.8672263661919554
南平市,Nanping,350700,福建省,Fujian,Tier 4,26.647772874203266,118.18436954814258,269.0,1991.57,6.0,387.24,7.40360594795539,0.7777582510280834
龙岩市,Longyan,350800,福建省,Fujian,Tier 4,25.08121984487168,117.02344756677536,264.0,2678.96,7.1,624.26,10.147575757575758,0.9320930510347298
宁德市,Ningde,350900,福建省,Fujian,Tier 3,26.67224171140857,119.55451074542827,291.0,2451.7,9.2,513.54,8.42508591065292,0.8378512868621772
南昌市,Nanchang,360100,江西省,Jiangxi,Tier 2,28.68945529506072,115.86458944231659,560.06,5596.18,8.0,1204.62,9.992107988429813,0.8610302027454441
景德镇市,Jingdezhen,360200,江西省,Jiangxi,Tier 4,29.274247711040953,117.1845764463858,168.0523,926.11,7.8,194.78,5.510843945605029,0.8412823530682101
萍乡市,Pingxiang,360300,江西省,Jiangxi,Tier 5,27.6283927093972,113.8614964337543,194.13,930.02,7.5,204.25,4.790707258022974,0.8784757317046945
九江市,Jiujiang,360400,江西省,Jiangxi,Tier 3,29.711340559079343,116.00753491163064,492.03,3121.05,8.4,655.0,6.343210779830499,0.8394610788036078
新余市,Xinyu,360500,江西省,Jiangxi,Tier 5,27.82357869778859,114.9235346513963,119.34,971.58,7.6,202.82,8.141277023629964,0.8350110129891516
鹰潭市,Yingtan,360600,江西省,Jiangxi,Tier 5,28.26578706319141,117.0755754270272,118.16,941.26,8.1,206.02,7.965978334461747,0.875507298727238
赣州市,Ganzhou,360700,江西省,Jiangxi,Tier 3,25.83517610349765,114.9405033729825,870.8,3474.34,8.5,758.95,3.9898254478640336,0.8737774656481518
吉安市,Jian,360800,江西省,Jiangxi,Tier 4,27.119726826070448,115.00051072001251,495.97,2085.41,8.1,455.54,4.204709962296106,0.8737658302204364
宜春市,Yichun,360900,江西省,Jiangxi,Tier 3,27.820856421848216,114.42356367590641,558.26,2687.57,7.6,583.62,4.814190520545982,0.8686210963807454
抚州市,Fuzhou,361000,江西省,Jiangxi,Tier 4,27.954892253419565,116.36453876864373,406.03,1510.92,7.9,329.37,3.721202866783243,0.8719720435231514
上饶市,Shangrao,361100,江西省,Jiangxi,Tier 3,28.46062592185173,117.94945960312224,683.3,2513.1,7.7,549.9,3.677886726181765,0.8752536707651905
济南市,Jinan,370100,山东省,Shandong,Tier 2,36.65655420178723,117.1263994126105,890.87,9443.37,7.0,2027.0,10.600166129738346,0.8585917950901002
青岛市,Qingdao,370200,山东省,Shandong,new Tier 1,36.07222749666322,120.38945519114628,949.98,11741.31,6.5,2504.87,12.359533884923893,0.8533528200856634
淄博市,Zibo,370300,山东省,Shandong,Tier 3,36.81908568332188,118.06145253489895,469.7,3642.4,3.5,755.7,7.754737066212477,0.8298923786514386
枣庄市,Zaozhuang,370400,山东省,Shandong,Tier 4,34.81599404843511,117.33054194483896,393.3,1693.91,3.6,358.92,4.306915840325451,0.8475538842087242
东营市,Dongying,370500,山东省,Shandong,Tier 4,37.43964182632335,118.68138493513693,217.97,2916.19,4.2,625.64,13.37885947607469,0.858160819425346
烟台市,Yantai,370600,山东省,Shandong,Tier 2,37.47003838373053,121.45441541730196,713.8,7653.45,5.5,1596.74,10.722121042308771,0.8345203796980447
潍坊市,Weifang,370700,山东省,Shandong,Tier 3,36.712651551267534,119.16837791142822,935.15,5688.5,3.7,1221.4,6.0829813398919965,0.8588555858310627
济宁市,Jining,370800,山东省,Shandong,Tier 3,35.420177394529645,116.59361234853986,835.6,4370.17,3.8,882.25,5.229978458592628,0.8075200735898146
泰安市,Taian,370900,山东省,Shandong,Tier 3,36.2058580448846,117.09449483479591,563.5,2663.6,6.3,567.73,4.726885536823425,0.8525754617810483
威海市,Weihai,371000,山东省,Shandong,Tier 3,37.516430548014796,122.12754097831323,283.6,2963.73,3.6,615.65,10.450387870239773,0.8309123975530834
日照市,Rizhao,371100,山东省,Shandong,Tier 4,35.42283899843767,119.53341540456556,294.9,1949.38,7.2,414.16,6.610308579179383,0.849829176456104
临沂市,Linyi,371300,山东省,Shandong,Tier 3,35.11067124236514,118.36353300501386,1066.71,4600.25,3.0,971.7,4.312559177283423,0.8449106026846367
德州市,Dezhou,371400,山东省,Shandong,Tier 4,37.441308454576266,116.36555674397472,574.85,3022.27,6.1,648.74,5.257493259111072,0.8586128969284677
聊城市,Liaocheng,371500,山东省,Shandong,Tier 4,36.462758187694114,115.99158784830445,609.83,2259.82,3.7,474.41,3.7056556745322466,0.839730598012231
滨州市,Binzhou,371600,山东省,Shandong,Tier 4,37.3881961960769,117.9774040171467,392.3,2457.19,4.1,510.46,6.263548304868723,0.8309654524070177
菏泽市,Heze,371700,山东省,Shandong,Tier 3,35.2394074247655,115.48754503343376,878.17,3409.98,6.3,725.86,3.8830522563968253,0.8514536742150981
郑州市,Zhengzhou,410100,河南省,Henan,new Tier 1,34.75343885045448,113.63141920733915,1035.2,11589.7,6.5,2469.77,11.195614374034003,0.8524017015108242
开封市,Kaifeng,410200,河南省,Henan,Tier 4,34.802885811211716,114.3145925849712,527.77,2364.14,7.2,495.5,4.4794891714193685,0.8383598264062196
洛阳市,Luoyang,410300,河南省,Henan,Tier 3,34.62426277921943,112.4594212983115,717.02,5034.9,7.8,1100.56,7.02197986109174,0.8743450714016168
平顶山市,Pingdingshan,410400,河南省,Henan,Tier 4,33.77205074869101,113.19952856052157,502.57,2372.64,7.5,514.03,4.72101398810116,0.8665958594645626
安阳市,Anyang,410500,河南省,Henan,Tier 4,36.10594098401491,114.39950042177429,594.79,2229.3,2.7,475.62,3.748045528673986,0.8533979276005921
鹤壁市,Hebi,410600,河南省,Henan,Tier 5,35.7523574114,114.30359364247649,163.15,988.69,7.1,211.24,6.060006129328839,0.8546258180015981
新乡市,Xinxiang,410700,河南省,Henan,Tier 3,35.30963993033679,113.93360046733228,581.43,2918.18,7.0,616.29,5.018970469360026,0.8447594048345202
焦作市,Jiaozuo,410800,河南省,Henan,Tier 4,35.22096325403899,113.24854783457334,359.71,2761.1,8.0,590.54,7.675905590614662,0.8555141066966064
濮阳市,Puyang,410900,河南省,Henan,Tier 4,35.76759302890629,115.03559747034215,400.89,1581.49,6.8,313.9,3.944947491830677,0.7939348336062826
许昌市,Xuchang,411000,河南省,Henan,Tier 4,34.04143161161871,113.858475536855,500.48,3395.7,7.1,721.1,6.784886508951406,0.8494272167741557
漯河市,Luohe,411100,河南省,Henan,Tier 4,33.5877107071022,114.02342077764726,266.82,1578.4,7.5,336.53,5.915598530844765,0.8528383172833248
三门峡市,Sanmenxia,411200,河南省,Henan,Tier 5,34.778327249459984,111.20653322387408,227.65,1443.82,7.5,298.49,6.342279815506259,0.8269451870731809
南阳市,Nanyang,411300,河南省,Henan,Tier 3,32.99656220465144,112.53450131351325,1003.16,3814.98,7.0,804.79,3.8029626380637187,0.8438209374623196
商丘市,Shangqiu,411400,河南省,Henan,Tier 3,34.4202016658586,115.66244933826236,733.36,2911.2,7.4,603.57,3.9696738300425434,0.8293075020610059
信阳市,Xinyang,411500,河南省,Henan,Tier 3,32.15301454753105,114.09748283304512,646.39,2758.47,6.3,542.59,4.267501044261205,0.7867984788669082
周口市,Zhoukou,411600,河南省,Henan,Tier 3,33.6318288757022,114.7034825148233,866.22,3198.49,7.5,666.58,3.692468426034956,0.8336183636653547
驻马店市,Zhumadian,411700,河南省,Henan,Tier 3,33.01784241674367,114.02847078173271,704.58,2742.06,7.4,595.33,3.891765306991399,0.8684419742821091
济源市,Jiyuan,419001,河南省,Henan,Tier 5,35.072907226846525,112.60858070620743,73.37,686.96,7.8,154.25,9.362954886193267,0.8981600093164085
武汉市,Wuhan,420100,湖北省,Hubei,new Tier 1,30.59846673640099,114.3115815547323,1121.2,16223.21,7.4,2257.3,14.469505886550124,0.5565606313423793
黄石市,Huangshi,420200,湖北省,Hubei,Tier 4,30.2052078489416,115.0455329089436,247.17,1767.19,8.2,247.31,7.149694542217907,0.5597813477894285
十堰市,Shiyan,420300,湖北省,Hubei,Tier 4,32.63506185840116,110.80452956069568,339.8,2012.7,7.0,292.1,5.923190111830489,0.5805137377651911
宜昌市,Yichang,420500,湖北省,Hubei,Tier 3,30.697446484492374,111.29254921035437,413.79,4460.82,8.1,594.54,10.780395852968896,0.5331217130482736
襄阳市,Xiangyang,420600,湖北省,Hubei,Tier 3,32.014796804669224,112.12853720100244,568.0,4812.8,7.9,631.7,8.47323943661972,0.5250166223404256
鄂州市,Ezhou,420700,湖北省,Hubei,Tier 4,30.39657217331699,114.901607388271,105.97,1140.07,7.8,,10.758422194960838,
荆门市,Jingmen,420800,湖北省,Hubei,Tier 4,31.041732575569625,112.20639298023,289.75,2033.77,7.5,279.82,7.019050905953408,0.5503473844141668
孝感市,Xiaogan,420900,湖北省,Hubei,Tier 4,30.930689227018288,113.92251007733664,492.1,2301.4,8.0,,4.676691729323308,
荆州市,Jingzhou,421000,湖北省,Hubei,Tier 3,30.340842107742912,112.24552262926136,557.01,2516.48,7.5,361.31,4.517836304554676,0.5743101475076297
黄冈市,Huanggang,421100,湖北省,Hubei,Tier 3,30.459358857618106,114.8784904841078,633.3,2322.73,6.8,327.34,3.6676614558660985,0.5637159721534573
咸宁市,Xianning,421200,湖北省,Hubei,Tier 4,29.84705594764649,114.32851909026844,254.84,1594.98,8.1,230.11,6.258750588604615,0.5770856060891046
随州市,Suizhou,421300,湖北省,Hubei,Tier 5,31.6965167723283,113.38945001822157,222.1,1162.23,7.8,162.31,5.232913102206213,0.5586157645216523
恩施土家族苗族自治州,Enshi,422800,湖北省,Hubei,Tier 4,30.27793957530109,109.49459261857504,339.0,1159.37,6.6,182.71,3.4199705014749258,0.6303768425955477
仙桃市,Xiantao,429004,湖北省,Hubei,Tier 5,30.33358775114635,113.44960935856369,114.01,868.47,7.7,132.21,7.617489693886501,0.6089329510518499
潜江市,Qianjiang,429005,湖北省,Hubei,Tier 5,30.408357932418927,112.9054740908161,96.61,812.63,7.9,,8.411448090259807,
天门市,Tianmen,429006,湖北省,Hubei,Tier 5,30.669621830099484,113.17240916632808,124.74,650.82,7.7,80.97,5.217412217412218,0.4976491195722319
神农架林区,Shennongjia,429021,湖北省,Hubei,Tier 5,31.75049601124641,110.68252485039976,7.8762,32.8579,7.3,,4.171796043777456,
长沙市,Changsha,430100,湖南省,Hunan,new Tier 1,28.234889399943643,112.94547319535287,839.45,11574.22,8.1,2704.86,13.787861099529453,0.934787830195037
株洲市,Zhuzhou,430200,湖南省,Hunan,Tier 3,27.833567639016447,113.14047079776428,402.85,3003.13,7.9,630.25,7.454710189896984,0.8394574993423528
湘潭市,Xiangtan,430300,湖南省,Hunan,Tier 4,27.83570222713559,112.9504641807647,288.2,2257.6,7.6,475.2,7.833448993754337,0.8419560595322466
衡阳市,Hengyang,430400,湖南省,Hunan,Tier 3,26.89957613918912,112.57844721325992,730.06,3372.68,8.1,748.8,4.619729885214914,0.8880771374693123
邵阳市,Shaoyang,430500,湖南省,Hunan,Tier 4,27.245270272808565,111.474432885931,730.24,2152.48,8.0,468.15,2.9476336546888695,0.8699732401694789
岳阳市,Yueyang,430600,湖南省,Hunan,Tier 3,29.363178293925905,113.13548942422142,577.13,3780.41,8.0,816.33,6.550361270424341,0.8637475829341262
常德市,Changde,430700,湖南省,Hunan,Tier 4,29.037749999406877,111.70545217995836,577.2,3624.2,7.9,770.0,6.278932778932778,0.849842723911484
张家界市,Zhangjiajie,430800,湖南省,Hunan,Tier 5,29.12281556255188,110.48553254695402,154.9,552.1,7.6,119.85,3.5642349903163333,0.8683209563484875
益阳市,Yiyang,430900,湖南省,Hunan,Tier 4,28.55971117848989,112.36151595471031,442.07,1792.46,7.1,379.99,4.054697219897301,0.8479742923133571
郴州市,Chenzhou,431000,湖南省,Hunan,Tier 4,25.77668327360186,113.02146049909462,475.5,2410.9,7.8,522.3,5.070241850683491,0.8665643535609108
永州市,Yongzhou,431100,湖南省,Hunan,Tier 4,26.42586411790009,111.61945505792228,544.61,2016.86,7.1,445.4,3.703310625952516,0.8833533314161618
怀化市,Huaihua,431200,湖南省,Hunan,Tier 4,27.57516090297852,110.00851426537254,498.33,1616.64,8.0,355.66,3.244115345253146,0.8799980205859066
娄底市,Loudi,431300,湖南省,Hunan,Tier 4,27.70320859699159,112.00150349288418,394.13,1640.58,8.1,359.8,4.162535204120467,0.8772507284009314
湘西土家族苗族自治州,Xiangxi,433100,湖南省,Hunan,Tier 5,28.317369104701186,109.74557664946684,263.83,705.71,7.2,148.26,2.6748663912367814,0.8403451842824955
广州市,Guangzhou,440100,广东省,Guangdong,Tier 1,23.135336306695013,113.27143134445974,1530.59,23628.6,6.8,5228.8,15.43757635944309,0.8851645886764345
韶关市,Shaoguan,440200,广东省,Guangdong,Tier 4,24.815881278583017,113.6035273456226,303.04,1318.4,6.0,272.14,4.350580781414995,0.8256674757281552
深圳市,Shenzhen,440300,广东省,Guangdong,Tier 1,22.548456637984177,114.06455183658753,1343.88,26927.09,6.7,5785.6,20.036826204720658,0.8594467504657949
珠海市,Zhuhai,440400,广东省,Guangdong,Tier 2,22.27656465424921,113.58255478654918,202.37,3435.89,6.8,703.46,16.97825764688442,0.8189552052015636
汕头市,Shantou,440500,广东省,Guangdong,Tier 3,23.35909171772515,116.6885286405483,566.48,2694.08,6.1,536.51,4.755825448382996,0.7965761966979451
佛山市,Foshan,440600,广东省,Guangdong,new Tier 1,23.02775875078891,113.12851219549721,815.86,10751.02,6.9,2153.98,13.177530458657122,0.8014048899546276
江门市,Jiangmen,440700,广东省,Guangdong,Tier 3,22.584603880965,113.08855619524044,463.03,3146.64,4.3,631.93,6.795758374187418,0.8033076551496199
湛江市,Zhanjiang,440800,广东省,Guangdong,Tier 3,21.276723439012073,110.36555441392824,736.0,3064.72,4.0,629.24,4.164021739130434,0.8212691534626329
茂名市,Maoming,440900,广东省,Guangdong,Tier 4,21.669064031332088,110.931542579969,641.15,3252.34,4.3,676.62,5.07266630273727,0.8321639189014678
肇庆市,Zhaoqing,441200,广东省,Guangdong,Tier 3,23.05288877112561,112.47148894063037,418.71,2248.8,6.3,424.52,5.370781686608871,0.7551049448594805
惠州市,Huizhou,441300,广东省,Guangdong,Tier 2,23.116358854725593,114.42355801658172,488.0,4177.41,4.2,879.14,8.560266393442623,0.8418038928426944
梅州市,Meizhou,441400,广东省,Guangdong,Tier 4,24.294177532206213,116.1295373761225,438.3,1187.06,3.4,244.72,2.7083276294775267,0.8246255454652671
汕尾市,Shanwei,441500,广东省,Guangdong,Tier 4,22.79126303654673,115.38155260365083,301.5,1080.3,6.7,228.11,3.5830845771144277,0.8446172359529761
河源市,Heyuan,441600,广东省,Guangdong,Tier 4,23.74968437095975,114.7074462729064,310.56,1080.03,5.5,210.34,3.4776854714064913,0.7790153977204337
阳江市,Yangjiang,441700,广东省,Guangdong,Tier 4,21.864339726138937,111.98848929181268,257.09,1292.18,8.2,252.95,5.026177603173987,0.783017845810955
清远市,Qingyuan,441800,广东省,Guangdong,Tier 3,23.688230292088083,113.06246832527266,388.6,1698.2,6.3,330.13,4.37004632012352,0.7775998115651866
东莞市,Dongguan,441900,广东省,Guangdong,new Tier 1,23.02730841164339,113.7584204578765,846.45,9482.5,7.4,1923.7,11.202669974599798,0.8114737674663854
中山市,Zhongshan,442000,广东省,Guangdong,Tier 2,22.5223146707905,113.39942236263187,338.0,3101.1,1.2,597.22,9.174852071005917,0.7703331076069783
潮州市,Chaozhou,445100,广东省,Guangdong,Tier 3,23.66262319261589,116.62947017362819,265.98,1080.94,5.0,223.89,4.063989773667193,0.8285011193960811
揭阳市,Jieyang,445200,广东省,Guangdong,Tier 3,23.555740488275585,116.37851218033846,610.5,2101.77,3.0,404.43,3.442702702702703,0.7696941149602479
云浮市,Yunfu,445300,广东省,Guangdong,Tier 5,22.920911970342857,112.05151269959144,254.52,921.96,6.1,181.24,3.6223479490806225,0.7863247863247863
南宁市,Nanning,450100,广西壮族自治区,Guangxi,Tier 2,22.82260660118716,108.3734508258186,734.48,4506.56,5.0,1010.18,6.13571506371855,0.8966306894837747
柳州市,Liuzhou,450200,广西壮族自治区,Guangxi,Tier 3,24.331961386852413,109.43442194634564,407.8,3128.35,2.4,608.9,7.671284943599804,0.7785573864816916
桂林市,Guilin,450300,广西壮族自治区,Guangxi,Tier 3,25.242885724872647,110.20354537457943,540.6,2105.56,6.5,463.71,3.894857565667776,0.8809247896046657
梧州市,Wuzhou,450400,广西壮族自治区,Guangxi,Tier 5,23.48274528113516,111.28551681182014,307.7,991.4,4.2,214.28,3.221969450763731,0.8645551745007061
北海市,Beihai,450500,广西壮族自治区,Guangxi,Tier 4,21.48683649576942,109.12653321256599,168.0,1300.8,8.1,281.47,7.742857142857143,0.865528905289053
防城港市,Fangchenggang,450600,广西壮族自治区,Guangxi,Tier 5,21.693005289969395,108.360418838298,96.36,701.23,5.4,161.3,7.277189705271898,0.9200975428889238
钦州市,Qinzhou,450700,广西壮族自治区,Guangxi,Tier 5,21.986593539484296,108.66058016842224,332.41,1356.27,7.8,286.16,4.0801119099906735,0.8439617480295223
贵港市,Guigang,450800,广西壮族自治区,Guangxi,Tier 5,23.11744838203753,109.60552031033306,443.08,1257.53,9.0,316.73,2.838155637808071,1.007467018679475
玉林市,Yulin,450900,广西壮族自治区,Guangxi,Tier 4,22.659830509953146,110.1884531233724,587.78,1679.77,7.2,383.42,2.8578209534179457,0.9130297600266704
百色市,Baise,451000,广西壮族自治区,Guangxi,Tier 5,23.90818593429596,106.62458932565384,368.74,1257.78,9.0,285.29,3.4110213158322935,0.907281082542257
贺州市,Hezhou,451100,广西壮族自治区,Guangxi,Tier 5,24.409450902865487,111.57352631416218,208.53,700.11,11.8,157.08,3.3573586534311612,0.8974589707331706
河池市,Hechi,451200,广西壮族自治区,Guangxi,Tier 5,24.698911731272894,108.0914999449866,356.36,878.1,6.0,193.93,2.4640812661353686,0.8834073567930759
来宾市,Laibin,451300,广西壮族自治区,Guangxi,Tier 5,23.756546762607282,109.22745819590092,224.43,654.15,4.3,139.07,2.91471728378559,0.8503859970954674
崇左市,Chongzuo,451400,广西壮族自治区,Guangxi,Tier 5,22.383117234663306,107.3715202061015,211.03,760.46,8.5,168.64,3.6035634743875278,0.8870420534939377
海口市,Haikou,460100,海南省,Hainan,Tier 3,20.04404943925674,110.32552547126407,232.79,1671.93,7.5,350.03,7.1821384080072175,0.8374274042573552
三亚市,Sanya,460200,海南省,Hainan,Tier 3,18.25873629174785,109.51855670139908,63.4369,677.86,6.4,153.82,10.68557889808613,0.9076800519281267
三沙市,Sansha,460300,海南省,Hainan,Tier 5,16.838953334409126,112.34048204137058,,,,,,
儋州市,Danzhou,460400,海南省,Hainan,Tier 5,19.5271461100442,109.58745583568613,92.07,357.64,6.5,73.0252,3.8844357554034974,0.8167453304999441
五指山市,Wuzhishan,469001,海南省,Hainan,Tier 5,18.780994100706135,109.52354032070568,10.71,34.0,,6.65,3.1746031746031744,0.7823529411764706
琼海市,Qionghai,469002,海南省,Hainan,Tier 5,19.26425401991763,110.4805445259504,52.14,283.3,5.1,56.14,5.4334484081319525,0.7926579597599718
文昌市,Wenchang,469005,海南省,Hainan,Tier 5,19.549062083120717,110.80450870631745,57.52,257.02,5.2,53.12,4.468358831710709,0.8267060929110576
万宁市,Wanning,469006,海南省,Hainan,Tier 5,18.800106988303387,110.39943436554806,58.5,235.58,4.1,50.14,4.027008547008547,0.8513456150776806
东方市,Dongfang,469007,海南省,Hainan,Tier 5,19.10110473128863,108.65856652679173,43.45,193.08,3.2,41.27,4.4437284234752585,0.854982390718873
定安县,Dingan,469021,海南省,Hainan,Tier 5,19.687119947910173,110.36553348340986,30.1,104.42,2.9,20.9,3.4691029900332224,0.8006129094043286
屯昌县,Tunchang,469022,海南省,Hainan,Tier 5,19.35737492427829,110.1085773245709,27.15,85.65,5.0,17.17,3.1546961325966856,0.8018680677174548
澄迈县,Chengmai,469023,海南省,Hainan,Tier 5,19.74434867164637,110.01351091010905,49.44,330.18,6.0,67.27,6.678398058252427,0.8149494215276515
临高县,Lingao,469024,海南省,Hainan,Tier 5,19.919474770278047,109.6974430148332,45.1,195.4,4.6,48.74,4.33259423503326,0.9977482088024565
白沙黎族自治县,Baisha,469025,海南省,Hainan,Tier 5,19.231378733012683,109.45747066911305,17.34,56.64,4.5,9.89,3.2664359861591694,0.6984463276836158
昌江黎族自治县,Changjiang,469026,海南省,Hainan,Tier 5,19.303997876684264,109.06246408734344,23.61,126.32,3.5,25.01,5.350275307073274,0.7919569347688411
乐东黎族自治县,Ledong,469027,海南省,Hainan,Tier 5,18.755871493854865,109.18050798894579,48.27,144.35,3.9,29.22,2.9904702713900972,0.8096986491167302
陵水黎族自治县,Lingshui,469028,海南省,Hainan,Tier 5,18.51233159569881,110.04446409254778,33.39,183.2,2.2,40.95,5.486672656483977,0.8941048034934499
保亭黎族苗族自治县,Baoting,469029,海南省,Hainan,Tier 5,18.646909955375843,109.70348151429985,15.45,55.7,3.3,10.86,3.6051779935275086,0.7798922800718132
琼中黎族苗族自治县,Qiongzhong,469030,海南省,Hainan,Tier 5,19.039163789180613,109.84451062847003,18.02,57.48,5.5,9.63,3.1897891231964484,0.6701461377870565
重庆市,Chongqing,500000,重庆市,Chongqing,new Tier 1,29.56899624533893,106.55843415537664,3124.32,23605.77,6.3,4987.66,7.555490474727301,0.8451594673675122
成都市,Chengdu,510100,四川省,Sichuan,new Tier 1,30.65582187841641,104.08153351042463,1658.1,17012.65,7.8,3845.57,10.260328086363913,0.9041671932356217
自贡市,Zigong,510300,四川省,Sichuan,Tier 5,29.34558492132757,104.78444884671713,292.2,1428.49,7.8,299.52,4.888740588637919,0.8387038061169486
攀枝花市,Panzhihua,510400,四川省,Sichuan,Tier 5,26.58803317333301,101.7255411709144,121.4,1010.13,6.3,229.03,8.320675453047775,0.9069327710294715
泸州市,Luzhou,510500,四川省,Sichuan,Tier 4,28.87766830360723,105.4485240693266,432.94,2081.26,8.0,449.1,4.807271215410912,0.8631309879592169
德阳市,Deyang,510600,四川省,Sichuan,Tier 4,31.133115003656755,104.40441936496448,356.1,2335.9,7.2,498.04,6.559674248806515,0.8528447279421209
绵阳市,Mianyang,510700,四川省,Sichuan,Tier 3,31.473663048745863,104.6855618607612,487.7,2856.2,8.1,619.7,5.856469140865285,0.8678663959106506
广元市,Guangyuan,510800,四川省,Sichuan,Tier 5,32.44161630531542,105.8504231816648,267.5,941.85,7.5,195.2,3.5209345794392526,0.8290067420502203
遂宁市,Suining,510900,四川省,Sichuan,Tier 5,30.539097671109122,105.59942153064439,318.9,1345.73,8.1,284.07,4.219912198181248,0.8443595669265008
内江市,Neijiang,511000,四川省,Sichuan,Tier 5,29.58588653832045,105.06458802499719,370.0,1433.3,7.8,312.33,3.8737837837837836,0.8716388753226819
乐山市,Leshan,511100,四川省,Sichuan,Tier 4,29.55794071745811,103.7725376036347,327.1,1863.31,7.6,414.21,5.696453683888718,0.8891918145665509
南充市,Nanchong,511300,四川省,Sichuan,Tier 3,30.84378250833704,106.11750261487228,643.5,2322.22,8.0,450.91,3.6087334887334883,0.7766878245816504
眉山市,Meishan,511400,四川省,Sichuan,Tier 4,30.082526119421054,103.85656331579456,299.5,1380.2,7.5,292.97,4.608347245409015,0.8490653528474135
宜宾市,Yibin,511500,四川省,Sichuan,Tier 4,28.758007028551827,104.6494037048691,457.3,2601.89,8.8,541.92,5.689678547999125,0.8331174646122625
广安市,Guangan,511600,四川省,Sichuan,Tier 5,30.461746110679,106.63955268233484,325.1,1250.4,7.5,260.9,3.8462011688711164,0.8346129238643633
达州市,Dazhou,511700,四川省,Sichuan,Tier 4,31.21430772392745,107.47459385897542,574.1,2041.5,7.7,433.26,3.5560006967427276,0.848905216752388
雅安市,Yaan,511800,四川省,Sichuan,Tier 5,30.01679254570607,103.04954262360451,154.1,723.79,8.0,145.14,4.696885139519792,0.802111109575982
巴中市,Bazhong,511900,四川省,Sichuan,Tier 5,31.872888585956545,106.7515853031645,331.92,754.29,6.0,165.98,2.272505422993492,0.8801919686062389
资阳市,Ziyang,512000,四川省,Sichuan,Tier 5,30.13495655925314,104.63443534164408,250.3,777.8,7.0,186.6,3.10747103475829,0.9596297248650039
阿坝藏族羌族自治州,Aba,513200,四川省,Sichuan,Tier 5,31.905511577266523,102.2314154617502,94.6,390.08,6.1,82.1,4.123467230443975,0.8418785890073831
甘孜藏族自治州,Ganzi,513300,四川省,Sichuan,Tier 5,30.05527884351838,101.96854674579022,119.9,388.46,6.5,78.07,3.2398665554628856,0.8038922926427431
凉山彝族自治州,Liangshan,513400,四川省,Sichuan,Tier 5,27.88775230036972,102.27350268097021,531.03,1676.3,5.6,388.28,3.156695478598196,0.9265167332816321
贵阳市,Guiyang,520100,贵州省,Guizhou,Tier 2,26.653324822309752,106.63657676352777,497.14,4039.6,7.4,838.76,8.125678883211972,0.8305376769977225
六盘水市,Liupanshui,520200,贵州省,Guizhou,Tier 5,26.59883310825749,104.8375546023468,295.05,1265.97,7.5,278.45,4.29069649211998,0.8797996792972976
遵义市,Zunyi,520300,贵州省,Guizhou,Tier 3,27.731700878916666,106.93342774801829,630.2,3483.32,9.7,790.98,5.527324658838464,0.9083058691133745
安顺市,Anshun,520400,贵州省,Guizhou,Tier 5,26.25925237871499,105.95441712388904,236.36,923.94,8.1,213.15,3.9090370621086477,0.9227871939736346
毕节市,Bijie,520500,贵州省,Guizhou,Tier 5,27.290215083425952,105.2985887950112,671.43,1901.36,8.0,408.42,2.8318067408367216,0.8592165607775488
铜仁市,Tongren,520600,贵州省,Guizhou,Tier 4,27.73778645640524,109.19643889817664,318.85,1249.0,8.0,288.1,3.9172024462913595,0.922658126501201
黔西南布依族苗族自治州,Qianxinan,522300,贵州省,Guizhou,Tier 5,25.09396734941651,104.91249214626991,288.6,1272.8,9.8,281.21,4.41025641025641,0.8837523570081709
黔东南苗族侗族自治州,Qiandongnan,522600,贵州省,Guizhou,Tier 4,26.589702969826032,107.98944624077879,355.2,1123.04,8.4,246.43,3.1617117117117117,0.8777247471149737
黔南布依族苗族自治州,Qiannan,522700,贵州省,Guizhou,Tier 4,26.26061619607384,107.5284027057371,426.65,1518.04,7.9,358.52,3.558045236142037,0.9446918394772206
昆明市,Kunming,530100,云南省,Yunnan,Tier 2,24.873998150044013,102.85244836500479,695.0,6475.88,6.5,1513.27,9.317812949640288,0.9347115758784906
曲靖市,Qujing,530300,云南省,Yunnan,Tier 4,25.49640693154367,103.8024348279468,617.77,2637.59,9.6,600.89,4.269533968952847,0.9112712741555737
玉溪市,Yuxi,530400,云南省,Yunnan,Tier 5,24.35771094244625,102.55356029311,238.9,1949.7,6.8,450.57,8.161155295102553,0.9243883674411447
保山市,Baoshan,530500,云南省,Yunnan,Tier 5,25.139038793265964,99.17727328581788,263.0,960.7,9.8,196.1,3.6528517110266163,0.8164879775163942
昭通市,Zhaotong,530600,云南省,Yunnan,Tier 5,27.344083860246812,103.72351177196887,564.57,1194.2,9.8,264.42,2.1152381458455105,0.8856807904873556
丽江市,Lijiang,530700,云南省,Yunnan,Tier 5,26.860657438064884,100.23246452903452,130.24,472.51,9.9,103.94,3.627994471744471,0.8798967217625023
普洱市,Puer,530800,云南省,Yunnan,Tier 5,22.830979186010275,100.97256981472799,265.2,875.28,8.1,170.32,3.3004524886877826,0.7783566401608628
临沧市,Lincang,530900,云南省,Yunnan,Tier 5,23.89046855627851,100.09544042014869,253.82,759.26,8.5,152.35,2.991332440312032,0.8026236071964807
楚雄彝族自治州,Chuxiong,532300,云南省,Yunnan,Tier 5,25.051773565340376,101.53441248050268,275.5,1251.9,9.1,287.93,4.544101633393829,0.9199776339963256
红河哈尼族彝族自治州,Honghe,532500,云南省,Yunnan,Tier 4,23.36999624760546,103.38154905257933,477.5,2211.99,8.5,495.23,4.632439790575916,0.8955375024299388
文山壮族苗族自治州,Wenshan,532600,云南省,Yunnan,Tier 5,23.40599429361173,104.2225689910943,367.2,1081.6,10.1,239.21,2.945533769063181,0.8846523668639055
西双版纳傣族自治州,Xishuangbanna,532800,云南省,Yunnan,Tier 5,22.013601254764165,100.80344682455635,119.6,568.0948,10.1,114.71,4.74995652173913,0.8076820981286926
大理白族自治州,Dali,532900,云南省,Yunnan,Tier 4,25.59760490545194,100.23651930044413,364.58,1374.9,6.1,286.54,3.7711887651544247,0.8336315368390429
德宏傣族景颇族自治州,Dehong,533100,云南省,Yunnan,Tier 5,24.43801070275812,98.59135935611413,132.4,513.66,7.9,118.6,3.879607250755287,0.9235681189892146
怒江傈僳族自治州,Nujiang,533300,云南省,Yunnan,Tier 5,25.82370741765775,98.8632883813579,55.7,192.51,11.1,37.39,3.4561938958707357,0.7768947067684796
迪庆藏族自治州,Diqing,533400,云南省,Yunnan,Tier 5,27.82518468364326,99.70952999013956,40.03,251.2005,11.6,59.74,6.275306020484637,0.9512719918949206
拉萨市,Lhasa,540100,西藏自治区,Xizang,Tier 4,29.650040274767733,91.12082391546393,55.89,617.88,8.0,,11.0552871712292,
日喀则市,Shigatse,540200,西藏自治区,Xizang,Tier 5,29.275657822511512,88.89370303482552,87.07,279.49,8.1,,3.2099460204433217,
昌都市,Chamdo,540300,西藏自治区,Xizang,Tier 5,31.14734654932703,97.17958359408598,79.8067,220.96,8.3,,2.768689846842433,
林芝市,Nyingchi,540400,西藏自治区,Xizang,Tier 5,29.654042176951524,94.36805828713257,23.8021,172.45,8.1,,7.245159040588855,
山南市,Shannan,540500,西藏自治区,Xizang,Tier 5,29.243026939249226,91.77867513851903,38.261,187.77,8.3,,4.9076082695172625,
那曲市,Naqu,540600,西藏自治区,Xizang,Tier 5,31.482438388454657,92.05733849817491,50.37,157.53,,,3.1274568195354377,
阿里地区,Ali,542500,西藏自治区,Xizang,Tier 5,32.50686601763335,80.11277692192645,12.4,62.4,,,5.032258064516129,
西安市,Xian,610100,陕西省,Shaanxi,new Tier 1,34.34726881662395,108.94646555063274,1020.35,9321.19,7.0,2095.65,9.135286911353948,0.8993057753355527
铜川市,Tongchuan,610200,陕西省,Shaanxi,Tier 5,34.902637080502906,108.95240424835922,80.37,354.72,6.8,80.56,4.4135871593878315,0.9084348218313035
宝鸡市,Baoji,610300,陕西省,Shaanxi,Tier 4,34.368915642869986,107.24457536704041,376.1,2223.81,3.5,453.0,5.9128157404945485,0.8148178126728453
咸阳市,Xianyang,610400,陕西省,Shaanxi,Tier 3,34.335476293368586,108.71542245143304,435.62,2195.33,1.9,442.26,5.039552821266241,0.8058196262065385
渭南市,Weinan,610500,陕西省,Shaanxi,Tier 4,34.50571551675255,109.51658960525896,527.81,1828.47,4.2,352.08,3.4642579716185753,0.7702177230143235
延安市,Yanan,610600,陕西省,Shaanxi,Tier 4,36.59111103521779,109.49658191612689,225.57,1663.89,6.7,348.63,7.376379837744381,0.8381082884084885
汉中市,Hanzhong,610700,陕西省,Shaanxi,Tier 5,33.073799907833795,107.02943020926465,343.7,1547.59,6.1,312.3,4.502734943264475,0.8071905349608101
榆林市,Yulin,610800,陕西省,Shaanxi,Tier 4,38.290883835484046,109.74161603381395,342.42,4136.28,7.1,865.57,12.079551428070788,0.8370516502751265
安康市,Ankang,610900,陕西省,Shaanxi,Tier 5,32.69051277057377,109.03560108265744,267.49,1182.06,7.9,224.49,4.419081087143444,0.7596568702096341
商洛市,Shangluo,611000,陕西省,Shaanxi,Tier 5,33.87863385220776,109.92441788136406,237.91,837.21,5.3,154.24,3.5190197974023794,0.7369238303412525
兰州市,Lanzhou,620100,甘肃省,Gansu,Tier 2,36.06723469354557,103.84052119633628,379.09,2837.36,6.0,642.37,7.484660634677782,0.9055882933431076
嘉峪关市,Jiayuguan,620200,甘肃省,Gansu,Tier 5,39.777960147390594,98.29620384300112,25.31,283.4,6.5,63.4,11.197155274595021,0.89484827099506
金昌市,Jinchang,620300,甘肃省,Gansu,Tier 5,38.52582009209263,102.19460568669837,45.82,340.31,9.7,79.71,7.427106067219555,0.9369104639887161
白银市,Baiyin,620400,甘肃省,Gansu,Tier 5,36.55082533041454,104.14445082834352,174.08,486.33,6.2,111.44,2.793715533088235,0.916579277445356
天水市,Tianshui,620500,甘肃省,Gansu,Tier 5,34.58741188165064,105.73141674566955,336.89,632.67,6.7,132.19,1.877972038350797,0.8357595586956865
武威市,Wuwei,620600,甘肃省,Gansu,Tier 5,37.93437780815811,102.64455434036918,182.5,488.46,4.0,109.01,2.6764931506849314,0.8926831265610287
张掖市,Zhangye,620700,甘肃省,Gansu,Tier 5,38.93206600700493,100.45641147405634,123.76,448.73,6.5,91.75,3.625808015513898,0.8178637488021749
平凉市,Pingliang,620800,甘肃省,Gansu,Tier 5,35.54923205046352,106.67144234827795,212.53,456.58,6.4,89.27,2.1483084740977745,0.7820754303736476
酒泉市,Jiuquan,620900,甘肃省,Gansu,Tier 5,39.73846908071564,98.50068521606796,113.22,618.2,7.7,128.8,5.460166048401343,0.833387253316079
庆阳市,Qingyang,621000,甘肃省,Gansu,Tier 5,35.715215983562004,107.64938569595421,227.88,742.94,5.3,159.87,3.2602246796559595,0.8607424556491775
定西市,Dingxi,621100,甘肃省,Gansu,Tier 5,35.586832926561875,104.632420083063,282.58,416.38,6.2,87.71,1.4734942317219903,0.8425957058456217
陇南市,Longnan,621200,甘肃省,Gansu,Tier 5,33.406620229951265,104.92857497071192,264.31,445.09,7.4,99.03,1.6839695811736217,0.8899773079601879
临夏回族自治州,Linxia,622900,甘肃省,Gansu,Tier 5,35.607562183503106,103.21639056529743,207.14,303.5,6.0,68.3,1.465192623346529,0.900164744645799
甘南藏族自治州,Gannan,623000,甘肃省,Gansu,Tier 5,34.98913990996821,102.91758468825803,72.32,218.33,3.5,47.13,3.0189435840707968,0.8634635643292264
西宁市,Xining,630100,青海省,Qinghai,Tier 4,36.62338469651661,101.78445017050856,238.71,1338.8,7.5,323.72,5.608478907460936,0.9671945025395878
海东市,Haidong,630200,青海省,Qinghai,Tier 5,36.5085110809413,102.1104440722824,149.32,487.73,7.0,,3.2663407447093493,
海北藏族自治州,Haibei,632200,青海省,Qinghai,Tier 5,36.96066282412982,100.907434321456,28.49,91.7,3.3,,3.218673218673219,
黄南藏族自治州,Huangnan,632300,青海省,Qinghai,Tier 5,35.525804586515534,102.02242827807585,28.0229,100.95,7.7,,3.6024108853830263,
海南藏族自治州,Hainan,632500,青海省,Qinghai,Tier 5,36.292102479898794,100.62662114445921,47.8,174.66,7.1,,3.6539748953974898,
果洛藏族自治州,Guoluo,632600,青海省,Qinghai,Tier 5,34.4771938664709,100.25159197879556,21.1588,46.1835,7.2,4.49,2.1827088492731157,0.38888347570019594
玉树藏族自治州,Yushu,632700,青海省,Qinghai,Tier 5,33.010979585142735,97.01318076277326,42.25,59.82,5.1,,1.4158579881656805,
海西蒙古族藏族自治州,Haixi,632800,青海省,Qinghai,Tier 5,37.382750462527454,97.37629911601906,52.07,666.11,7.5,128.6,12.792586902246976,0.7722448244283977
银川市,Yinchuan,640100,宁夏回族自治区,Ningxia,Tier 3,38.4924600555096,106.23849358740016,229.31,1901.48,6.3,415.18,8.29218089049758,0.8733828386309611
石嘴山市,Shizuishan,640200,宁夏回族自治区,Ningxia,Tier 5,38.98968283991508,106.39060042550491,80.59,605.92,7.0,118.56,7.51855068867105,0.7826775811988382
吴忠市,Wuzhong,640300,宁夏回族自治区,Ningxia,Tier 5,38.00371291345338,106.20537126663626,142.25,580.2,7.1,122.73,4.078734622144113,0.8461220268872802
固原市,Guyuan,640400,宁夏回族自治区,Ningxia,Tier 5,36.02161725801098,106.24857742607188,125.05,322.66,6.5,67.31,2.5802479008396646,0.834438728072894
中卫市,Zhongwei,640500,宁夏回族自治区,Ningxia,Tier 5,37.505701418702934,105.20357090088713,117.46,437.65,6.0,84.34,3.7259492593223227,0.7708442819604707
乌鲁木齐市,Urumqi,650100,新疆维吾尔自治区,Xinjiang,Tier 3,43.83076320429048,87.62443993536046,355.2,3413.26,6.5,852.43,9.609403153153155,0.9989628683428744
克拉玛依市,Karamay,650200,新疆维吾尔自治区,Xinjiang,Tier 5,45.58567523781376,84.89590053887504,46.2347,972.9,6.1,232.46,21.042636807419537,0.9557405694315964
吐鲁番市,Turpan,650400,新疆维吾尔自治区,Xinjiang,Tier 5,42.956984848771235,89.1972972460079,63.34,384.5,5.9,85.0,6.070413640669403,0.8842652795838751
哈密市,Hami,650500,新疆维吾尔自治区,Xinjiang,Tier 5,42.82582436811265,93.52121554028506,55.76,604.82,6.4,142.49,10.84684361549498,0.9423630170959955
昌吉回族自治州,Changji,652300,新疆维吾尔自治区,Xinjiang,Tier 5,44.016854159919866,87.3150016244744,160.39,1324.74,6.1,270.75,8.259492487062785,0.8175189093708954
博尔塔拉蒙古自治州,Boertala,652700,新疆维吾尔自治区,Xinjiang,Tier 5,44.9121964134647,82.07291475827435,47.5483,354.29,7.1,71.89,7.451160188692341,0.8116514719580005
巴音郭楞蒙古自治州,Bayingolin,652800,新疆维吾尔自治区,Xinjiang,Tier 5,41.770287330450394,86.15171386533258,128.57,1149.34,4.8,279.04,8.939410437893754,0.9711312579393392
阿克苏地区,Akesu,652900,新疆维吾尔自治区,Xinjiang,Tier 5,41.175029860077494,80.26694348473501,256.17,1222.43,8.1,250.22,4.771948315571691,0.8187626285349672
克孜勒苏柯尔克孜自治州,Kezilesukeerkezi,653000,新疆维吾尔自治区,Xinjiang,Tier 5,39.72047120487073,76.17430867621205,62.023,159.05,5.2,33.79,2.564371281621334,0.8497956617415906
喀什地区,Kashgar,653100,新疆维吾尔自治区,Xinjiang,Tier 5,39.47609674864479,75.99639055639747,462.4,1048.3,5.6,218.08,2.2670847750865053,0.8321282075741678
和田地区,Hetian,653200,新疆维吾尔自治区,Xinjiang,Tier 5,37.12044646304192,79.9285070635119,253.05,377.65,,81.05,1.4923928077455046,0.8584668343704488
伊犁哈萨克自治州,Yili,654000,新疆维吾尔自治区,Xinjiang,Tier 5,43.92272313749215,81.3305377475322,455.68,2226.45,6.0,242.08,4.88599455758427,0.43491657122324784
塔城地区,Tacheng,654200,新疆维吾尔自治区,Xinjiang,Tier 5,46.750948254373434,82.98723551840641,121.94,696.58,5.2,132.83,5.712481548302445,0.7627551752849637
阿勒泰地区,Aletai,654300,新疆维吾尔自治区,Xinjiang,Tier 5,47.850727870101956,88.14792620373525,65.7265,339.16,6.2,78.66,5.16017131598366,0.9277037386484254
石河子市,Shihezi,659001,新疆维吾尔自治区,Xinjiang,Tier 5,44.31197647806301,86.08688567193295,71.7,528.09,4.3,,7.365271966527197,
阿拉尔市,Alar,659002,新疆维吾尔自治区,Xinjiang,Tier 5,40.55326389470603,81.28735422539545,40.9,309.5,,,7.567237163814181,
图木舒克市,Tumxuk,659003,新疆维吾尔自治区,Xinjiang,Tier 5,39.87120907742499,79.07561628689639,27.01,184.02,,,6.8130322102924845,
五家渠市,Wujiaqu,659004,新疆维吾尔自治区,Xinjiang,Tier 5,44.17244451890096,87.54993663229611,37.12,301.8,4.9,,8.130387931034484,
北屯市,Beitun,659005,新疆维吾尔自治区,Xinjiang,Tier 5,47.33886454910664,87.84346630198361,10.62,75.531,,,7.112146892655368,
铁门关市,Tiemenguan,659006,新疆维吾尔自治区,Xinjiang,Tier 5,41.86364869769258,85.6868578317237,23.16,182.16,,,7.865284974093264,
双河市,Shuanghe,659007,新疆维吾尔自治区,Xinjiang,Tier 5,44.85295884149881,82.37838192999241,13.3173,78.13,,,5.8668048328114555,
可克达拉市,Kokdala,659008,新疆维吾尔自治区,Xinjiang,Tier 5,43.93731690864564,81.02734930740128,25.65,210.53,,,8.207797270955167,
昆玉市,Kunyu,659009,新疆维吾尔自治区,Xinjiang,Tier 5,37.51721976341508,78.99517508946022,6.4272,23.3631,,,3.6350354742345035,
