city_cn,city,city_id,province_cn,province,tier,lat,lng,population,city_tier1,city_tier2,city_tier3,city_tier4,city_tier5,distance,local_flow,pagerank,mean_intensity,intensity_2019,intensity_2020,intensity_reduction,date_0123,date_0124,date_0125,date_0126,date_0127,date_0128,date_0129,date_0130,date_0131,date_0201,date_0202,date_0203,date_0204,date_0205,date_0206,date_0207,date_0208,date_0209,date_0210,date_0211,date_0212,date_0213,date_0214,date_0215,date_0216,date_0217,date_0218,date_0219,date_0220,date_0221,date_0222,date_0223,date_0224,date_0225,date_0226,date_0227,date_0228,date_0229,date_0301,date_0302,date_0303,date_0304,date_0305,date_0306,date_0307,date_0308,date_0309,date_0310,date_0311,date_0312,date_0313,date_0314,date_0315,date_0316,date_0317,date_0318,date_0319,date_0320,date_0321,date_0322,date_0323,date_0324,date_0325,date_0326,date_0327,date_0328,date_0329,date_0330,date_0331,date_0401,hubei_city
北京市,Beijing,110000,北京市,Beijing,Tier 1,39.91092454729957,116.4133836971231,2153.6,1,0,0,0,0,1050.6401582394733,184.35350115,0.015574170878657955,5.677559090909091,331.92119999999994,241.5429,90.37829999999997,26,36,51,67,80,96,112,132,156,183,212,228,253,274,297,315,326,337,342,352,366,372,375,380,381,387,393,395,396,399,399,399,400,400,410,410,411,413,414,414,417,418,422,426,428,428,429,435,435,436,437,442,446,455,458,479,485,499,512,522,554,559,565,569,572,576,577,580,580,582,0
天津市,Tianjin,120000,天津市,Tianjin,new Tier 1,39.093667843403956,117.2095232146708,1561.83,1,0,0,0,0,978.8401708584275,30.484535004,0.005574312236027474,5.610922727272729,356.668,258.5126,98.1554,0,8,10,14,23,24,27,31,32,41,48,60,67,69,79,81,88,91,95,107,113,119,120,122,125,127,128,130,131,133,135,135,135,135,135,136,136,136,136,136,136,136,136,136,136,136,136,136,136,136,136,136,136,136,136,136,137,137,137,141,142,145,147,152,156,163,166,174,174,176,0
石家庄市,Shijiazhuang,130100,河北省,Hebei,Tier 2,38.0483119268727,114.52153190157443,1039.42,0,1,0,0,0,826.6276638502219,30.89218046400001,0.0051906172445681355,5.479822727272726,346.9245,260.6993,86.22520000000004,1,4,5,7,9,10,11,11,12,13,16,21,21,24,24,24,24,25,27,27,27,27,27,28,28,28,28,28,28,29,29,29,29,29,29,29,29,29,29,29,29,29,29,29,29,29,29,29,29,29,29,29,29,29,29,29,29,29,29,29,29,29,29,29,29,29,29,29,29,29,0
唐山市,Tangshan,130200,河北省,Hebei,Tier 3,39.63658372414733,118.1864594720398,796.4,0,0,1,0,0,1062.8056889577238,9.256907772,0.0026922257420433377,5.583631818181819,355.8822,288.39370000000014,67.48849999999993,0,0,0,0,1,3,3,7,8,11,11,11,12,17,19,23,27,28,31,33,35,43,46,51,51,51,55,56,57,57,58,58,58,58,58,58,58,58,58,58,58,58,58,58,58,58,58,58,58,58,58,58,58,58,58,58,58,58,58,58,58,58,58,58,58,58,58,58,58,58,0
秦皇岛市,Qinhuangdao,130300,河北省,Hebei,Tier 3,39.941748102377936,119.60853063334328,314.63,0,0,1,0,0,1142.576314249283,4.230622872,0.001596581671043957,5.3842954545454536,333.1633,280.1461,53.0172,0,0,0,0,0,0,0,0,1,1,2,2,3,3,5,7,7,7,9,9,9,9,10,10,10,10,10,10,10,10,10,10,10,10,10,10,10,10,10,10,10,10,10,10,10,10,10,10,10,10,10,10,10,10,10,10,10,10,10,10,10,10,10,10,10,10,10,10,10,10,0
邯郸市,Handan,130400,河北省,Hebei,Tier 3,36.631262731204046,114.5456282282352,954.97,0,0,1,0,0,669.4843728588997,25.975888218,0.003952656689123621,5.2819318181818184,354.68869999999987,277.33200000000005,77.35669999999988,0,0,2,2,4,4,6,7,10,11,11,14,14,18,22,26,27,27,27,29,31,31,31,31,31,31,31,31,31,31,32,32,32,32,32,32,32,32,32,32,32,32,32,32,32,32,32,32,32,32,32,32,32,32,32,32,32,32,32,32,32,32,32,32,32,32,32,32,32,32,0
邢台市,Xingtai,130500,河北省,Hebei,Tier 3,37.076685950966095,114.5114622561298,739.52,0,0,1,0,0,718.8010669997194,19.854137286,0.0033579477638448303,5.1522272727272735,345.72240000000005,254.0005,91.72190000000008,0,0,0,1,2,3,5,7,10,10,14,16,16,19,19,21,21,21,21,21,21,22,22,22,23,23,23,23,23,23,23,23,23,23,23,23,23,23,23,23,23,23,23,23,23,23,23,23,23,23,23,23,23,23,23,23,23,23,23,23,23,23,23,23,23,23,23,23,23,23,0
保定市,Baoding,130600,河北省,Hebei,Tier 2,38.879987768455344,115.47146383768579,939.91,0,1,0,0,0,924.8167664502727,18.839091618000005,0.004363172629039083,4.987400000000001,319.8782,223.4632,96.415,0,1,3,3,3,6,7,11,11,13,13,13,17,17,18,18,21,26,30,31,31,31,32,32,32,32,32,32,32,32,32,32,32,32,32,32,32,32,32,32,32,32,32,32,32,32,32,32,32,32,32,32,32,32,32,32,32,32,32,32,32,32,32,32,32,32,32,32,32,32,0
张家口市,Zhangjiakou,130700,河北省,Hebei,Tier 4,40.7732372026915,114.89257223145165,442.33,0,0,0,1,0,1130.1490624546625,5.34061836,0.0020176739758956995,5.01784090909091,342.8495000000001,267.8235000000001,75.02599999999995,0,0,0,0,0,1,6,6,8,9,9,9,10,12,13,14,14,17,21,21,25,31,33,34,34,34,34,34,34,34,34,34,34,35,40,41,41,41,41,41,41,41,41,41,41,41,41,41,41,41,41,41,41,41,41,41,41,41,41,41,41,41,41,41,41,41,41,41,41,41,0
承德市,Chengde,130800,河北省,Hebei,Tier 4,40.957856012338034,117.9693975099668,358.27,0,0,0,1,0,1195.7432743563918,3.316916304,0.001609946050003804,4.999840909090908,324.4351,270.3395,54.09559999999999,0,1,1,1,1,1,2,2,2,2,2,3,4,5,6,7,7,7,7,7,7,7,7,7,7,7,7,7,7,7,7,7,7,7,7,7,7,7,7,7,7,7,7,7,7,7,7,7,7,7,7,7,7,7,7,7,7,7,7,7,7,7,7,7,7,7,7,7,7,7,0
沧州市,Cangzhou,130900,河北省,Hebei,Tier 3,38.31021514110704,116.84558075595017,754.43,0,0,1,0,0,886.4838121522133,14.286959820000005,0.003192159721062965,5.5783227272727265,363.9415,264.22700000000003,99.71450000000004,1,2,2,2,5,8,12,18,19,19,19,20,20,21,23,28,28,28,32,37,42,45,46,47,47,48,48,48,48,48,48,48,48,48,48,48,48,48,48,48,48,48,48,48,48,48,48,48,48,48,48,48,48,48,48,48,48,48,48,48,48,48,48,48,48,48,48,48,48,48,0
廊坊市,Langfang,131000,河北省,Hebei,Tier 2,39.54336666275853,116.69058173342549,492.05,0,1,0,0,0,1015.6986550912036,9.744764616,0.003933272286020077,4.6875363636363625,300.5759,208.8724,91.70350000000002,0,0,0,2,6,9,9,9,11,11,12,12,13,14,15,20,22,24,26,28,29,29,29,30,30,30,30,30,30,30,30,30,30,30,30,30,30,30,30,30,30,30,30,30,30,30,30,30,30,30,30,30,30,30,30,30,30,30,30,30,30,30,30,30,30,30,30,30,30,30,0
衡水市,Hengshui,131100,河北省,Hebei,Tier 4,37.745191408077424,115.6754061376161,448.6,0,0,0,1,0,802.6375253750682,8.875198187999999,0.002439843931307335,5.326136363636363,354.2232,286.2752000000001,67.94799999999998,0,0,0,0,2,3,4,4,4,4,4,5,5,7,7,7,8,8,8,8,8,8,8,8,8,8,8,8,8,8,8,8,8,8,8,8,8,8,8,8,8,8,8,8,8,8,8,8,8,8,8,8,8,8,8,8,8,8,8,8,8,8,8,8,8,8,8,8,8,8,0
太原市,Taiyuan,140100,山西省,Shanxi,Tier 2,37.87698902884778,112.55639149167204,446.19,0,1,0,0,0,823.3680124991832,20.87587566,0.005731612390727153,5.223436363636363,320.2067,229.118,91.08870000000003,1,2,2,2,3,3,3,4,4,6,6,6,9,9,11,12,15,17,18,18,18,18,19,19,19,19,19,19,19,20,20,20,20,20,20,20,20,20,20,20,20,20,20,20,20,20,20,20,20,20,20,20,20,20,20,20,20,20,20,20,20,20,20,20,20,20,20,20,20,20,0
大同市,Datong,140200,山西省,Shanxi,Tier 4,40.0824687161612,113.30643625858623,346.3,0,0,0,1,0,1056.1654550607268,7.816500648,0.0020943492519859127,5.094581818181818,339.045,289.54389999999995,49.501100000000065,0,1,1,1,1,3,4,5,6,8,9,9,9,9,9,10,11,11,11,11,12,12,12,12,12,12,12,12,12,12,12,12,12,12,12,12,12,12,12,12,12,12,12,12,12,12,12,12,12,12,12,12,12,12,12,12,12,12,12,12,12,12,12,12,12,12,12,12,12,12,0
阳泉市,Yangquan,140300,山西省,Shanxi,Tier 5,37.862360847859385,113.58761666287546,141.75,0,0,0,0,1,808.5101199422473,3.2633915040000008,0.0009426022329814762,5.073031818181816,352.40739999999994,281.95899999999995,70.44839999999998,0,0,1,1,1,1,1,1,1,1,2,2,2,3,4,4,4,4,4,4,4,4,4,4,4,4,4,4,4,4,4,4,4,4,4,4,4,4,4,4,4,4,4,4,4,4,4,4,4,4,4,4,4,4,4,4,4,4,4,4,4,4,4,4,4,4,4,4,4,4,0
长治市,Changzhi,140400,山西省,Shanxi,Tier 4,36.2012683721548,113.12255886984902,347.8,0,0,0,1,0,631.1677638490337,8.560882224,0.0017951122641858106,4.950113636363636,349.6082,272.47800000000007,77.13019999999995,0,1,1,1,1,1,3,3,3,3,3,3,3,5,5,5,7,7,7,8,8,8,8,8,8,8,8,8,8,8,8,8,8,8,8,8,8,8,8,8,8,8,8,8,8,8,8,8,8,8,8,8,8,8,8,8,8,8,8,8,8,8,8,8,8,8,8,8,8,8,0
晋城市,Jincheng,140500,山西省,Shanxi,Tier 5,35.49628458647257,112.85857823132879,235.3,0,0,0,0,1,559.8696383799108,8.694614196000003,0.0012873100406574115,5.4899,363.17,263.04029999999995,100.1297,0,0,0,0,0,0,0,0,2,3,6,7,7,7,8,8,8,8,8,8,8,8,8,9,9,9,10,10,10,10,10,10,10,10,10,10,10,10,10,10,10,10,10,10,10,10,10,10,10,10,10,10,10,10,10,10,10,10,10,10,10,10,10,10,10,10,10,10,10,10,0
朔州市,Shuozhou,140600,山西省,Shanxi,Tier 5,39.337108370541735,112.4393709396677,178.45,0,0,0,0,1,984.3612907708756,4.555246896,0.0015312498120692536,5.138281818181818,347.5866,292.948,54.6386,0,0,0,2,2,2,3,3,3,3,3,3,4,4,4,4,6,7,7,7,7,7,7,7,7,8,8,8,8,8,8,8,8,8,8,8,8,8,8,8,8,8,8,8,8,8,8,8,8,8,8,8,8,8,8,8,8,8,8,8,8,8,8,8,8,8,8,8,8,8,0
晋中市,Jinzhong,140700,山西省,Shanxi,Tier 4,37.69283940975971,112.75959475565928,338.9484,0,0,0,1,0,799.8191909550258,10.942388172000001,0.002852469983340046,4.667559090909091,335.8215,245.0448,90.7767,0,0,2,2,5,9,9,9,11,13,15,19,21,26,27,30,32,32,33,34,35,35,35,35,36,36,36,36,36,36,36,36,37,37,37,37,37,37,37,37,37,37,37,37,37,37,37,37,37,37,37,37,37,37,37,37,37,37,37,37,37,37,37,37,37,37,37,37,37,37,0
运城市,Yuncheng,140800,山西省,Shanxi,Tier 4,35.032706912909234,111.01338945447924,537.26,0,0,0,1,0,580.6159432558151,13.336311744000001,0.002588720677185743,5.199527272727273,358.43040000000013,275.9006,82.52980000000008,0,2,2,2,3,4,7,8,10,10,13,16,17,17,17,17,18,18,19,19,19,19,19,19,19,19,19,19,19,19,19,19,19,19,19,19,19,19,19,19,19,19,19,19,19,19,19,19,19,19,19,19,19,19,19,19,19,19,19,19,19,19,19,19,19,19,19,19,19,19,0
忻州市,Xinzhou,140900,山西省,Shanxi,Tier 4,38.42238338517772,112.74062416023848,317.29,0,0,0,1,0,879.787115527704,4.937845860000001,0.001984309783826706,4.61475909090909,326.14129999999994,261.0607,65.08059999999995,0,0,0,0,0,0,0,0,1,3,3,3,3,3,3,6,6,7,7,7,7,7,7,7,7,7,7,7,7,7,7,7,7,7,7,7,7,7,7,7,7,7,7,7,7,7,7,7,7,7,7,7,7,7,7,7,7,7,7,7,7,7,7,7,7,7,7,7,7,7,0
临汾市,Linfen,141000,山西省,Shanxi,Tier 4,36.093741895419726,111.52553022403072,450.84,0,0,0,1,0,662.2766057433607,8.780232816000003,0.002403909850836805,5.2415318181818185,364.316,292.552,71.76400000000002,0,0,0,1,1,1,1,1,1,1,1,1,1,1,2,2,2,2,2,2,2,2,2,2,2,2,2,2,2,2,2,2,2,2,2,2,2,2,2,2,2,2,2,2,2,2,2,2,2,2,2,2,2,2,2,2,2,2,2,2,2,2,2,2,2,2,2,2,2,2,0
吕梁市,Lvliang,141100,山西省,Shanxi,Tier 4,37.524497749577115,111.15044967529184,389.09,0,0,0,1,0,821.668978766304,5.312464703999999,0.002257406585893013,4.952559090909091,351.53519999999986,277.23459999999994,74.30059999999997,0,0,0,1,3,3,4,5,5,5,5,5,5,6,6,6,6,6,6,6,6,6,6,6,6,6,6,6,6,6,6,6,6,6,6,6,6,6,6,6,6,6,6,6,6,6,6,6,6,6,6,6,6,6,6,6,6,6,6,6,6,6,6,6,6,6,6,6,6,6,0
呼和浩特市,Hohhot,150100,内蒙古自治区,Neimenggu,Tier 3,40.848422997113474,111.75550856170946,313.7,0,0,1,0,0,1160.3997410442767,7.665527015999997,0.003048452457265808,5.93025,375.2334,278.4158999999999,96.81750000000014,0,0,0,0,0,2,2,2,2,2,4,4,5,5,7,7,7,7,7,7,7,7,7,7,7,7,7,7,7,7,7,7,7,7,7,7,7,7,7,7,7,7,7,7,7,7,7,7,7,7,7,7,7,7,7,7,7,7,7,7,7,7,7,7,7,7,7,7,7,7,0
包头市,Baotou,150200,内蒙古自治区,Neimenggu,Tier 4,40.66292878826139,109.84654350721243,289.7,0,0,0,1,0,1187.2085069028794,4.1277710160000005,0.001975335895502442,6.090327272727274,396.6778,324.6173,72.06049999999998,0,0,0,2,3,3,3,3,3,5,6,6,7,9,9,10,10,11,11,11,11,11,11,11,11,11,11,11,11,11,11,11,11,11,11,11,11,11,11,11,11,11,11,11,11,11,11,11,11,11,11,11,11,11,11,11,11,11,11,11,11,11,11,11,11,11,11,11,11,11,0
乌海市,Wuhai,150300,内蒙古自治区,Neimenggu,Tier 5,39.6620063648907,106.80039104999656,56.61,0,0,0,0,1,1215.3722610724851,0.6754881600000001,0.0012014084984694599,5.879477272727272,378.2535,323.76290000000006,54.49059999999997,0,0,0,0,0,0,0,0,0,1,1,1,2,2,2,2,2,2,2,2,2,2,2,2,2,2,2,2,2,2,2,2,2,2,2,2,2,2,2,2,2,2,2,2,2,2,2,2,2,2,2,2,2,2,2,2,2,2,2,2,2,2,2,2,2,2,2,2,2,2,0
赤峰市,Chifeng,150400,内蒙古自治区,Neimenggu,Tier 5,42.261686103411606,118.89552039751949,433.09,0,0,0,0,1,1357.3724011568293,5.572464336,0.002254116056352324,5.675436363636364,367.9099,297.752,70.15789999999998,0,0,1,1,2,2,2,2,2,2,2,2,3,3,4,4,4,4,4,5,5,7,7,9,9,9,9,9,9,9,9,9,9,9,9,9,9,9,9,9,9,9,9,9,9,9,9,9,9,9,9,9,9,9,9,9,9,9,9,9,9,9,9,9,9,9,9,9,9,9,0
通辽市,Tongliao,150500,内蒙古自治区,Neimenggu,Tier 5,43.657980083916655,122.25052178737631,313.88,0,0,0,0,1,1610.0204126796314,3.1161383639999998,0.0019121300273876023,5.575559090909088,365.9582,304.0013,61.95690000000002,0,0,0,1,1,1,1,1,1,1,1,1,1,1,2,3,3,6,6,6,6,6,6,6,6,7,7,7,7,7,7,7,7,7,7,7,7,7,7,7,7,7,7,7,7,7,7,7,7,7,7,7,7,7,7,7,7,7,7,7,7,7,7,7,7,7,7,7,7,7,0
鄂尔多斯市,Ordos,150600,内蒙古自治区,Neimenggu,Tier 4,39.61448231394889,109.78744317923599,208.76,0,0,0,1,0,1081.5534122104054,2.365680816,0.002548265639966284,6.090222727272727,399.2432,331.1748,68.0684,0,0,2,2,2,2,3,3,5,6,9,9,11,11,11,11,11,11,11,11,11,11,11,11,11,11,11,11,11,11,11,11,11,11,11,11,11,11,11,11,11,11,11,11,11,11,11,11,11,11,11,11,11,11,11,11,11,11,11,11,11,11,11,11,11,11,11,11,11,11,0
呼伦贝尔市,Hulunbuir,150700,内蒙古自治区,Neimenggu,Tier 5,49.21844647556481,119.77237049946636,253.41,0,0,0,0,1,2118.106977317681,2.204723772,0.00138185308675758,5.259586363636363,333.1041,280.1435,52.96060000000006,1,1,2,2,2,2,2,2,2,2,2,3,3,5,5,5,5,5,5,6,6,6,6,6,6,6,7,7,7,7,7,7,7,7,7,7,7,7,7,7,7,7,7,7,7,7,7,7,7,7,7,7,7,7,7,7,7,7,7,7,7,7,7,7,7,7,7,7,7,7,0
巴彦淖尔市,Bayannur,150800,内蒙古自治区,Neimenggu,Tier 5,40.7493594895728,107.39439808372492,169.4,0,0,0,0,1,1287.5947161356478,1.284067404,0.0013583159576280588,6.178881818181816,427.6391,326.2197,101.4194,0,0,0,0,0,1,2,2,3,3,3,3,4,4,4,4,6,6,6,6,6,6,8,8,8,8,8,8,8,8,8,8,8,8,8,8,8,8,8,8,8,8,8,8,8,8,8,8,8,8,8,8,8,8,8,8,8,8,8,8,8,8,8,8,8,8,8,8,8,8,0
乌兰察布市,Ulanqab,150900,内蒙古自治区,Neimenggu,Tier 5,41.00074832767381,113.13946767446328,209.02,0,0,0,0,1,1159.0168044653435,2.03937426,0.001952289829163318,5.708877272727272,405.2907,335.8806,69.4101,0,0,0,0,0,0,0,2,2,2,3,3,3,3,3,3,3,3,3,3,3,3,3,3,3,3,3,3,3,3,3,3,3,3,3,3,3,3,3,3,3,3,3,3,3,3,3,3,3,3,3,3,3,3,3,3,3,3,3,3,3,3,3,3,3,3,3,3,3,3,0
兴安盟,Xinganmeng,152200,内蒙古自治区,Neimenggu,Tier 5,46.088463713218964,122.0443645258252,161.13,0,0,0,0,1,1845.3220853167825,1.20927492,0.00131486833709115,5.691095454545455,375.8168,318.1355000000001,57.68129999999991,0,0,0,1,1,1,1,1,1,1,1,1,1,1,1,1,1,1,1,1,1,1,1,1,1,1,1,1,1,1,1,1,1,1,1,1,1,1,1,1,1,1,1,1,1,1,1,1,1,1,1,1,1,1,1,1,1,1,1,1,1,1,1,1,1,1,1,1,1,1,0
锡林郭勒盟,Xilinguole,152500,内蒙古自治区,Neimenggu,Tier 5,43.93942266533856,116.05439144074572,105.83,0,0,0,0,1,1488.581231754465,0.7528360319999998,0.0010911862161310157,5.460731818181818,377.78909999999985,277.1809,100.60819999999991,0,1,2,2,2,2,2,2,2,2,2,2,2,2,2,2,2,2,2,2,3,5,6,6,8,8,9,9,9,9,9,9,9,9,9,9,9,9,9,9,9,9,9,9,9,9,9,9,9,9,9,9,9,9,9,9,9,9,9,9,9,9,9,9,9,9,9,9,9,9,0
阿拉善盟,Alashanmeng,152900,内蒙古自治区,Neimenggu,Tier 5,38.85827588305696,105.73537746449358,24.94,0,0,0,0,1,1205.6640206651746,0.6590824200000002,0.0011323362033277284,5.199295454545455,338.9552,298.4369000000001,40.518299999999954,0,0,0,0,0,0,0,0,0,0,0,0,0,0,0,0,0,0,0,0,0,0,0,0,0,0,0,0,0,0,0,0,0,0,0,0,0,0,0,0,0,0,0,0,0,0,0,0,0,0,0,0,0,0,0,0,0,0,0,0,0,0,0,0,0,0,0,0,0,0,0
沈阳市,Shenyang,210100,辽宁省,Liaoning,new Tier 1,41.683830069190655,123.47109664482264,832.2,1,0,0,0,0,1478.723198020831,16.981583580000006,0.007575075902085136,5.775472727272727,355.6451,291.46490000000006,64.18019999999996,2,3,5,6,8,8,9,10,13,13,13,15,18,23,23,25,26,26,26,27,28,28,28,28,28,28,28,28,28,28,28,28,28,28,28,28,28,28,28,28,28,28,28,28,28,28,28,28,28,28,28,28,28,28,28,28,28,28,28,28,28,28,28,28,28,28,28,28,28,28,0
大连市,Dalian,210200,辽宁省,Liaoning,Tier 2,38.918953666785605,121.62163148459284,700.2,0,1,0,0,0,1139.2192269865234,15.065924994000001,0.002561408951279029,5.784359090909091,353.22379999999987,299.9206999999999,53.30309999999997,1,2,4,4,5,5,5,7,8,10,12,12,13,14,14,14,16,16,16,16,16,17,18,18,19,19,19,19,19,19,19,19,19,19,19,19,19,19,19,19,19,19,19,19,19,19,19,19,19,19,19,19,19,19,19,19,19,19,19,19,19,19,19,19,19,19,19,19,19,19,0
鞍山市,Anshan,210300,辽宁省,Liaoning,Tier 3,41.11505359694933,123.00137251399408,358.46,0,0,1,0,0,1404.5907211678625,3.1223572200000005,0.00230388897202945,5.773936363636364,358.1408,319.8458,38.29499999999996,0,0,0,0,0,0,0,0,1,1,1,1,1,1,3,3,3,3,3,3,3,3,4,4,4,4,4,4,4,4,4,4,4,4,4,4,4,4,4,4,4,4,4,4,4,4,4,4,4,4,4,4,4,4,4,4,4,4,4,4,4,4,4,4,4,4,4,4,4,4,0
抚顺市,Fushun,210400,辽宁省,Liaoning,Tier 4,41.885969593056934,123.96437461561449,206.7,0,0,0,1,0,1521.3882245324594,1.711276632,0.0013962887633868178,5.2085681818181815,329.5921,302.5291,27.06299999999999,0,0,0,0,0,0,0,0,0,0,0,0,0,0,0,0,0,0,0,0,0,0,0,0,0,0,0,0,0,0,0,0,0,0,0,0,0,0,0,0,0,0,0,0,0,0,0,0,0,0,0,0,0,0,0,0,0,0,0,0,0,0,0,0,0,0,0,0,0,0,0
本溪市,Benxi,210500,辽宁省,Liaoning,Tier 5,41.492916460552905,123.69250712420832,167.36,0,0,0,0,1,1473.0159157029514,1.4547904559999998,0.001111008823048555,5.470536363636364,349.4628,304.2084,45.254400000000025,0,1,1,2,2,2,3,3,3,3,3,3,3,3,3,3,3,3,3,3,3,3,3,3,3,3,3,3,3,3,3,3,3,3,3,3,3,3,3,3,3,3,3,3,3,3,3,3,3,3,3,3,3,3,3,3,3,3,3,3,3,3,3,3,3,3,3,3,3,3,0
丹东市,Dandong,210600,辽宁省,Liaoning,Tier 4,40.00640870559368,124.3615472815908,238.0,0,0,0,1,0,1385.4774212153507,1.7387398439999997,0.0011538369533281448,5.638409090909091,343.6853,310.814,32.87129999999996,0,0,1,1,5,5,5,5,5,6,6,6,6,7,7,7,7,7,7,7,7,7,7,7,7,7,7,7,7,7,7,7,7,7,7,7,7,8,8,11,11,11,11,11,11,11,11,11,11,11,11,11,11,11,11,11,11,11,11,11,11,11,11,11,11,11,11,11,11,11,0
锦州市,Jinzhou,210700,辽宁省,Liaoning,Tier 4,41.10093149946208,121.1325963005552,293.4,0,0,0,1,0,1317.1026378288182,2.99999538,0.0022702102994875194,5.331868181818184,347.27170000000007,306.72580000000005,40.545900000000024,0,0,0,0,0,4,4,4,7,7,7,7,7,7,7,8,10,11,11,11,12,12,12,12,12,12,12,12,12,12,12,12,12,12,12,12,12,12,12,12,12,12,12,12,12,12,12,12,12,12,12,12,12,12,12,12,12,12,12,12,12,12,12,12,12,12,12,12,12,12,0
营口市,Yingkou,210800,辽宁省,Liaoning,Tier 4,40.67313683826707,122.24157466449694,243.1,0,0,0,1,0,1327.3127016536898,1.8768241080000003,0.001607844239798676,6.041895454545455,370.5048,348.9567,21.548099999999977,0,0,1,1,1,1,1,1,1,1,1,1,1,1,1,1,1,1,1,1,1,1,1,1,1,1,1,1,1,1,1,1,1,1,1,1,1,1,1,1,1,1,1,1,1,1,1,1,1,1,1,1,1,1,1,1,1,1,1,1,1,1,1,1,1,1,1,1,1,1,0
阜新市,Fuxin,210900,辽宁省,Liaoning,Tier 5,42.02802190131842,121.67640799865808,183.7,0,0,0,0,1,1428.9830355759373,1.3539985920000002,0.001249007311374042,5.3883636363636365,346.41940000000005,305.1171,41.30230000000006,0,0,0,0,0,0,0,0,1,2,3,5,7,7,7,7,7,7,8,8,8,8,8,8,8,8,8,8,8,8,8,8,8,8,8,8,8,8,8,8,8,8,8,8,8,8,8,8,8,8,8,8,8,8,8,8,8,8,8,8,8,8,8,8,8,8,8,8,8,8,0
辽阳市,Liaoyang,211000,辽宁省,Liaoning,Tier 5,41.27416129045421,123.24336640651319,183.1,0,0,0,0,1,1430.8967263158054,1.2353112360000005,0.0016891318951627278,5.588727272727271,351.6003,324.9555000000001,26.644799999999968,0,0,0,0,1,1,1,1,1,1,2,2,2,2,2,2,3,3,3,3,3,3,3,3,3,3,3,3,3,3,3,3,3,3,3,3,3,3,3,3,3,3,3,3,3,3,3,3,3,3,3,3,3,3,3,3,3,3,3,3,3,3,3,3,3,3,3,3,3,3,0
盘锦市,Panjin,211100,辽宁省,Liaoning,Tier 4,41.12587528873715,122.0774900902138,144.0,0,0,0,1,0,1361.1062396716507,1.30712616,0.0014817947322638206,6.149822727272729,362.1096,330.30460000000005,31.804999999999946,0,0,1,2,2,2,3,3,7,7,8,8,8,8,11,11,11,11,11,11,11,11,11,11,11,11,11,11,11,11,11,11,11,11,11,11,11,11,11,11,11,11,11,11,11,11,11,11,11,11,11,11,11,11,11,11,11,11,11,11,11,11,11,11,11,11,11,11,11,11,0
铁岭市,Tieling,211200,辽宁省,Liaoning,Tier 5,42.22994799718447,123.73236520917769,289.0,0,0,0,0,1,1540.406487366622,2.02489146,0.0019073261282839605,5.2145318181818165,335.4112,308.2395,27.171700000000047,0,2,2,2,2,2,2,2,2,2,3,3,3,3,3,3,3,4,4,4,7,7,7,7,7,7,7,7,7,7,7,7,7,7,7,7,7,7,7,7,7,7,7,7,7,7,7,7,7,7,7,7,7,7,7,7,7,7,7,7,7,7,7,7,7,7,7,7,7,7,0
朝阳市,Chaoyang,211300,辽宁省,Liaoning,Tier 5,41.579820864755675,120.45749949793276,334.9,0,0,0,0,1,1337.386286403132,2.0357632800000003,0.001870495858385581,5.6665,361.174,345.42620000000005,15.747799999999984,1,2,2,2,2,3,4,5,6,6,6,6,6,6,6,6,6,6,6,6,6,6,6,6,6,6,6,6,6,6,6,6,6,6,6,6,6,6,6,6,6,6,6,6,6,6,6,6,6,6,6,6,6,6,6,6,6,6,6,6,6,6,6,6,6,6,6,6,6,6,0
葫芦岛市,Huludao,211400,辽宁省,Liaoning,Tier 4,40.71736443636189,120.8433983399283,275.8,0,0,0,1,0,1268.030635078531,3.389134608,0.0017752905845678075,5.561422727272726,355.2048999999999,312.7142,42.490699999999954,0,2,2,2,2,3,4,4,5,5,5,5,6,7,7,9,9,9,9,11,11,11,11,12,12,12,12,12,12,12,12,12,12,12,12,12,12,12,12,12,12,12,12,12,12,12,12,12,12,12,12,12,12,12,12,12,12,12,12,12,12,12,12,12,12,12,12,12,12,12,0
长春市,Changchun,220100,吉林省,Jilin,Tier 2,43.82195350104314,125.33060207590692,753.8,0,1,0,0,0,1760.0509736617166,12.811512258000002,0.006318473581086939,5.705718181818184,355.4206,294.39450000000005,61.026099999999936,1,1,1,1,1,1,4,4,7,13,17,18,28,29,32,32,37,39,40,42,42,43,44,45,45,45,45,45,45,45,45,45,45,45,45,45,45,45,45,45,45,45,45,45,45,45,45,45,45,45,45,45,45,45,45,45,45,45,45,45,45,45,45,45,45,45,45,45,45,45,0
吉林市,Jilin,220200,吉林省,Jilin,Tier 4,43.84356783457924,126.5556345049548,411.6,0,0,0,1,0,1823.6482233198547,4.381163316000001,0.002173815325310847,5.369518181818184,339.1389999999999,301.96019999999993,37.17880000000002,1,2,2,2,3,3,3,3,3,3,4,5,5,5,5,5,5,5,5,5,5,5,5,5,5,5,5,5,5,5,5,5,5,5,5,5,5,5,5,5,5,5,5,5,5,5,5,5,5,5,5,5,5,5,5,5,5,5,5,5,5,5,5,5,5,5,5,5,5,5,0
四平市,Siping,220300,吉林省,Jilin,Tier 5,43.171993571561,124.35648155715893,318.2,0,0,0,0,1,1655.1330146393784,2.3624285040000004,0.0025906519784488426,4.946963636363637,333.5461,273.1972,60.348899999999965,0,0,0,1,1,1,1,1,1,1,4,7,8,9,10,10,12,12,12,12,13,14,14,14,14,14,15,15,15,15,15,15,15,15,15,15,15,15,15,15,15,15,15,15,15,15,15,15,15,15,15,15,15,15,15,15,15,15,15,15,15,15,15,15,15,15,15,15,15,15,0
辽源市,Liaoyuan,220400,吉林省,Jilin,Tier 5,42.89405500574631,125.15042516688749,116.547,0,0,0,0,1,1669.7826965672384,0.7546475159999999,0.0010688268680004213,5.36565,348.5856,299.6674,48.91820000000001,0,0,0,0,0,0,0,0,0,0,0,3,3,5,5,6,6,6,6,6,6,6,7,7,7,7,7,7,7,7,7,7,7,7,7,7,7,7,7,7,7,7,7,7,7,7,7,7,7,7,7,7,7,7,7,7,7,7,7,7,7,7,7,7,7,7,7,7,7,7,0
通化市,Tonghua,220500,吉林省,Jilin,Tier 5,41.733815801613424,125.94660627598029,214.74,0,0,0,0,1,1616.2657675958142,2.104304184,0.001491397697186299,5.0596000000000005,319.9791,266.474,53.50509999999997,0,0,0,0,0,1,1,1,1,1,1,1,1,1,2,2,3,3,3,3,3,3,3,3,3,3,3,4,4,4,4,6,6,6,6,6,6,6,6,6,6,6,6,6,6,6,6,6,6,6,6,6,6,6,6,6,6,6,6,6,6,6,6,6,6,6,6,6,6,6,0
白山市,Baishan,220600,吉林省,Jilin,Tier 5,41.93962720532889,126.42963008937572,116.5,0,0,0,0,1,1660.6363968374203,0.879142572,0.0009417582656358703,5.014504545454546,319.3471,276.8505,42.4966,0,0,0,0,0,0,0,0,0,0,0,0,0,0,0,0,0,0,0,0,0,0,0,0,0,0,0,0,0,0,0,0,0,0,0,0,0,0,0,0,0,0,0,0,0,0,0,0,0,0,0,0,0,0,0,0,0,0,0,0,0,0,0,0,0,0,0,0,0,0,0
松原市,Songyuan,220700,吉林省,Jilin,Tier 5,45.14740419341382,124.83148187569292,274.55,0,0,0,0,1,1857.569843117093,1.996648704,0.001993212096075239,5.489604545454546,355.3595,327.2596000000001,28.099899999999927,1,1,1,2,2,2,2,2,2,2,2,2,2,2,2,2,2,2,2,2,2,2,2,2,2,2,2,2,2,2,2,2,2,2,2,2,2,2,2,2,2,2,2,2,2,2,2,2,2,2,2,2,2,2,2,2,2,2,2,2,2,2,2,2,2,2,2,2,2,2,0
白城市,Baicheng,220800,吉林省,Jilin,Tier 5,45.62550435999602,122.8455906084976,188.5,0,0,0,0,1,1825.5926522059965,1.1396800440000001,0.0014931597960990734,5.134795454545454,347.92400000000004,295.4202,52.50380000000001,0,0,0,0,0,0,0,0,0,0,0,0,0,0,0,1,1,1,1,1,1,1,1,1,1,1,1,1,1,1,1,1,1,1,1,1,1,1,1,1,1,1,1,1,1,1,1,1,1,1,1,1,1,1,1,1,1,1,1,1,1,1,1,1,1,1,1,1,1,1,0
延边朝鲜族自治州,Yanbian,222400,吉林省,Jilin,Tier 4,42.91574303372182,129.47737632022742,207.2,0,0,0,1,0,1918.2032712990133,1.7614736279999998,0.001162651486099591,5.270918181818182,335.525,277.0928,58.43219999999997,0,0,0,0,0,0,2,2,2,2,2,3,3,4,5,5,5,5,5,5,5,5,5,5,5,5,5,5,5,5,5,5,5,5,5,5,5,5,5,5,5,5,5,5,5,5,5,5,5,5,5,5,5,5,5,5,5,5,5,5,5,5,5,5,5,5,5,5,5,5,0
哈尔滨市,Harbin,230100,黑龙江省,Heilongjiang,Tier 2,45.80882582795218,126.54161509031664,1076.3,0,1,0,0,0,1994.2635400030856,26.694616770000003,0.007917073725057025,5.367327272727274,336.7274,220.5903,116.13709999999998,1,6,8,8,10,11,13,18,25,34,45,63,73,82,94,100,114,128,146,150,159,164,167,182,188,190,192,194,197,197,198,198,198,198,198,198,198,198,198,198,198,198,198,198,198,198,198,198,198,198,198,198,198,198,198,198,198,198,198,198,198,198,198,198,198,198,198,198,198,198,0
齐齐哈尔市,Qiqihar,230200,黑龙江省,Heilongjiang,Tier 4,47.3599771860153,123.92457086841536,526.7,0,0,0,1,0,2034.9593567865838,2.5190141400000003,0.0027205627677421304,5.149527272727274,344.40990000000005,241.7324,102.67750000000008,0,0,1,1,2,3,3,3,3,3,3,6,20,26,27,27,27,30,32,33,33,36,36,38,42,43,43,43,43,43,43,43,43,43,43,43,43,43,43,43,43,43,43,43,43,43,43,43,43,43,43,43,43,43,43,43,43,43,43,43,43,43,43,43,43,43,43,43,43,43,0
鸡西市,Jixi,230300,黑龙江省,Heilongjiang,Tier 5,45.300872317823895,130.97561865876668,169.4,0,0,0,0,1,2183.844703450256,0.8938405079999999,0.0010581328985647316,4.900259090909091,328.7444,215.8563,112.88809999999998,0,0,0,0,0,1,1,2,4,4,6,9,12,21,29,31,34,34,38,43,44,44,45,46,46,46,46,46,46,46,46,46,46,46,46,46,46,46,46,46,46,46,46,46,46,46,46,46,46,46,46,46,46,46,46,46,46,46,46,46,46,46,46,46,46,46,46,46,46,46,0
鹤岗市,Hegang,230400,黑龙江省,Heilongjiang,Tier 5,47.35605615768509,130.3044328986694,98.5,0,0,0,0,1,2309.924736319899,0.766941696,0.0009207744615767498,5.243722727272727,342.4282,263.615,78.8132,0,0,0,0,0,0,1,1,1,1,1,2,2,2,2,3,4,5,5,5,5,5,5,5,5,5,5,5,5,5,5,5,5,5,5,5,5,5,5,5,5,5,5,5,5,5,5,5,5,5,5,5,5,5,5,5,5,5,5,5,5,5,5,5,5,5,5,5,5,5,0
双鸭山市,Shuangyashan,230500,黑龙江省,Heilongjiang,Tier 5,46.65318589588607,131.16534168078073,140.7,0,0,0,0,1,2298.455544445658,1.6752543119999999,0.0012695104704900564,5.047086363636363,332.38300000000004,227.8917,104.4913,0,0,0,1,1,1,1,1,2,4,7,12,16,20,36,36,38,38,38,39,39,48,48,49,50,52,52,52,52,52,52,52,52,52,52,52,52,52,52,52,52,52,52,52,52,52,52,52,52,52,52,52,52,52,52,52,52,52,52,52,52,52,52,52,52,52,52,52,52,52,0
大庆市,Daqing,230600,黑龙江省,Heilongjiang,Tier 3,46.59363317672175,125.1086576340204,272.0,0,0,1,0,0,2004.918088446238,2.617305048,0.002419831429846324,5.773245454545455,360.2599,263.8012,96.45870000000002,1,1,3,5,5,5,5,7,8,8,11,11,11,13,13,13,13,13,14,15,15,18,19,19,20,20,23,26,26,26,26,26,26,26,26,26,26,26,26,26,26,26,26,26,26,26,26,26,26,26,26,26,26,26,26,26,26,26,26,26,26,26,26,26,26,26,26,26,26,26,0
伊春市,Yichun,230700,黑龙江省,Heilongjiang,Tier 5,47.733318457230936,128.84754638019822,112.436,0,0,0,0,1,2271.161607267345,0.7692430680000001,0.0009719243710813963,4.383622727272726,289.6944,215.6688,74.02559999999997,0,0,0,0,0,0,0,0,0,0,0,0,0,0,0,0,0,0,0,0,0,0,1,1,1,1,1,1,1,1,1,1,1,1,1,1,1,1,1,1,1,1,1,1,1,1,1,1,1,1,1,1,1,1,1,1,1,1,1,1,1,1,1,1,1,1,1,1,1,1,0
佳木斯市,Jiamusi,230800,黑龙江省,Heilongjiang,Tier 5,46.80568999085779,130.327359092573,232.0,0,0,0,0,1,2266.0496181432945,2.487109212,0.002177538000366584,5.2299727272727266,337.74250000000006,238.9276,98.81490000000014,0,0,0,1,1,5,5,8,11,11,11,11,11,12,13,13,13,14,15,15,15,15,15,15,15,15,15,15,15,15,15,15,15,15,15,15,15,15,15,15,15,15,15,15,15,15,15,15,15,15,15,15,15,15,15,15,15,15,15,15,15,15,15,15,15,15,15,15,15,15,0
七台河市,Qitaihe,230900,黑龙江省,Heilongjiang,Tier 5,45.77630032154785,131.01154459102744,76.97,0,0,0,0,1,2221.9797592024333,0.4262006160000001,0.0008333051871484627,5.814513636363636,368.49,252.8216,115.66840000000002,0,0,0,1,2,2,2,3,5,6,7,8,9,9,10,11,13,14,15,15,16,16,16,16,16,17,17,17,17,17,17,17,17,17,17,17,17,17,17,17,17,17,17,17,17,17,17,17,17,17,17,17,17,17,17,17,17,17,17,17,17,17,17,17,17,17,17,17,17,17,0
牡丹江市,Mudanjiang,231000,黑龙江省,Heilongjiang,Tier 5,44.55624570898632,129.63953977834691,250.4,0,0,0,0,1,2050.3230321069045,1.9332681480000005,0.0014165102060093569,4.985936363636363,327.3152,237.0704,90.2448,1,1,1,1,1,1,1,2,6,7,8,8,9,10,11,12,12,12,12,12,12,12,12,12,12,13,13,14,14,14,14,14,14,14,14,14,14,14,14,14,14,15,15,15,15,15,15,15,15,15,15,15,15,15,15,15,15,15,15,15,15,15,15,15,15,15,15,15,15,15,0
黑河市,Heihe,231100,黑龙江省,Heilongjiang,Tier 5,50.25127231175014,127.53548988621854,158.1,0,0,0,0,1,2445.410268030301,0.7093455120000001,0.0011755362765530468,4.522172727272726,294.56019999999995,201.0595,93.50069999999994,0,0,0,0,0,0,0,0,0,1,1,1,1,1,1,2,2,4,4,6,10,13,13,14,14,14,14,14,14,14,14,14,14,14,14,14,14,14,14,14,14,14,14,14,14,14,14,14,14,14,14,14,14,14,14,14,14,14,14,14,14,14,14,14,14,14,14,14,14,14,0
绥化市,Suihua,231200,黑龙江省,Heilongjiang,Tier 5,46.6600321798244,126.9753568753013,521.7,0,0,0,0,1,2090.398565313957,3.3858933119999994,0.003574830135705661,4.997077272727274,319.8764,236.1854,83.69099999999997,1,1,2,3,8,8,10,12,13,14,16,22,24,29,39,44,35,37,39,43,45,45,46,46,46,46,47,47,47,47,47,47,47,47,47,47,47,47,47,47,47,47,47,47,47,47,47,47,47,47,47,47,47,47,47,47,47,47,47,47,47,47,47,47,47,47,47,47,47,47,0
大兴安岭地区,Daxinganling,232700,黑龙江省,Heilongjiang,Tier 5,50.420025955027846,124.15292785448057,41.683,0,0,0,0,1,2348.9522047676082,0.254384388,0.0006071003621047887,4.45064090909091,538.6424000000002,208.4552,330.18720000000013,0,0,0,0,0,0,1,2,2,2,2,2,2,2,2,2,2,2,2,2,2,2,2,2,2,2,2,2,2,2,2,2,2,2,2,2,2,2,2,2,2,2,2,2,2,2,2,3,3,3,3,3,3,3,3,3,3,3,3,3,3,3,3,3,3,3,3,3,3,3,0
上海市,Shanghai,310000,上海市,Shanghai,Tier 1,31.23592904225201,121.48053886017652,2428.14,1,0,0,0,0,688.7669110758998,135.83671698600006,0.00863224975948515,5.879227272727272,353.46259999999984,278.3512,75.11139999999989,20,33,40,53,66,80,101,128,153,177,193,208,233,254,269,281,292,295,302,306,313,318,326,328,331,333,333,333,334,334,335,335,335,336,337,337,337,337,337,338,338,339,342,342,342,342,344,344,344,346,350,353,355,358,361,368,371,380,394,404,414,433,451,468,485,492,498,509,516,522,0
南京市,Nanjing,320100,江苏省,Jiangsu,new Tier 1,32.064652885618464,118.80242172124584,850.0,1,0,0,0,0,457.22438931207495,58.483105974,0.006358166813295495,5.754154545454546,342.395,271.17400000000004,71.221,3,4,7,7,10,14,19,25,28,35,40,44,47,52,57,65,71,78,84,87,90,91,91,92,92,92,93,93,93,93,93,93,93,93,93,93,93,93,93,93,93,93,93,93,93,93,93,93,93,93,93,93,93,93,93,93,93,93,93,93,93,93,93,93,93,93,93,93,93,93,0
无锡市,Wuxi,320200,江苏省,Jiangsu,Tier 2,31.498809732685714,120.318583288106,659.15,0,1,0,0,0,581.9457523036217,23.261205294,0.003128783077787385,5.9063954545454544,367.0509,302.1129,64.93799999999999,1,1,2,4,6,9,10,12,13,19,23,25,26,28,31,34,38,41,45,48,49,51,52,53,55,55,55,55,55,55,55,55,55,55,55,55,55,55,55,55,55,55,55,55,55,55,55,55,55,55,55,55,55,55,55,55,55,55,55,55,55,55,55,55,55,55,55,55,55,55,0
徐州市,Xuzhou,320300,江苏省,Jiangsu,Tier 2,34.212666550113056,117.29057543439451,882.56,0,1,0,0,0,488.9906508291883,23.579602200000004,0.004931526801687811,5.704677272727272,376.2619,299.1668,77.09509999999995,0,0,0,3,8,8,15,20,23,30,36,39,45,45,49,52,56,60,63,66,71,76,77,78,79,79,79,79,79,79,79,79,79,79,79,79,79,79,79,79,79,79,79,79,79,79,79,79,79,79,79,79,79,79,79,79,79,79,79,79,79,79,79,79,79,79,79,79,79,79,0
常州市,Changzhou,320400,江苏省,Jiangsu,Tier 2,31.815795653327843,119.98148471327892,473.6,0,1,0,0,0,556.8497639178427,16.118580096000002,0.002362014769936546,5.92185,366.3788,293.05209999999994,73.32670000000007,0,5,5,6,8,8,10,13,14,15,15,19,24,27,29,31,31,31,31,36,38,43,43,46,49,50,51,51,51,51,51,51,51,51,51,51,51,51,51,51,51,51,51,51,51,51,51,51,51,51,51,51,51,51,51,51,51,51,51,51,51,51,51,51,51,51,51,51,51,51,0
苏州市,Suzhou,320500,江苏省,Jiangsu,new Tier 1,31.30356407444177,120.59241222959322,1075.0,1,0,0,0,0,605.1356384539256,39.54686652,0.005379116022252643,5.911422727272727,371.7635,290.4016000000001,81.36189999999993,2,3,7,8,12,20,24,32,34,38,44,52,55,60,69,72,75,77,80,84,85,85,86,86,86,87,87,87,87,87,87,87,87,87,87,87,87,87,87,87,87,87,87,87,87,87,87,87,87,87,87,87,87,87,87,87,87,87,87,87,87,87,87,87,87,87,87,87,87,87,0
南通市,Nantong,320600,江苏省,Jiangsu,Tier 2,31.986549431200892,120.90159173866184,731.8,0,1,0,0,0,645.9220173094527,20.99176398,0.002515602429808036,5.794586363636364,372.48339999999985,322.29149999999987,50.19189999999998,1,1,2,4,6,6,9,10,12,17,19,22,25,27,29,31,32,33,35,37,38,39,40,40,40,40,40,40,40,40,40,40,40,40,40,40,40,40,40,40,40,40,40,40,40,40,40,40,40,40,40,40,40,40,40,40,40,40,40,40,40,40,40,40,40,40,40,40,40,40,0
连云港市,Lianyungang,320700,江苏省,Jiangsu,Tier 3,34.60224952526725,119.22862133316609,451.1,0,0,1,0,0,640.2840241314769,10.193509476000001,0.0021776010387078624,5.4835590909090905,357.6189,278.26599999999996,79.35289999999998,1,1,3,3,3,3,6,9,13,13,14,17,20,22,24,27,32,35,37,39,42,45,46,48,48,48,48,48,48,48,48,48,48,48,48,48,48,48,48,48,48,48,48,48,48,48,48,48,48,48,48,48,48,48,48,48,48,48,48,48,48,48,48,48,48,48,48,48,48,48,0
淮安市,Huaian,320800,江苏省,Jiangsu,Tier 3,33.61629530103313,119.02148367070623,493.26,0,0,1,0,0,556.2962390326611,8.116771212,0.002272389099957203,5.793136363636365,388.7336,311.23529999999994,77.4983000000001,0,0,1,2,2,3,7,10,12,13,18,22,26,34,37,40,44,46,46,47,51,56,60,63,65,66,66,66,66,66,66,66,66,66,66,66,66,66,66,66,66,66,66,66,66,66,66,66,66,66,66,66,66,66,66,66,66,66,66,66,66,66,66,66,66,66,66,66,66,66,0
盐城市,Yancheng,320900,江苏省,Jiangsu,Tier 3,33.3551009176262,120.167544265761,720.89,0,0,1,0,0,632.1248443096216,12.823128629999998,0.0025681207671629626,5.431172727272728,369.3737,338.6578,30.715899999999976,0,1,1,1,1,6,6,8,13,15,15,15,15,16,16,17,17,18,18,21,25,26,27,27,27,27,27,27,27,27,27,27,27,27,27,27,27,27,27,27,27,27,27,27,27,27,27,27,27,27,27,27,27,27,27,27,27,27,27,27,27,27,27,27,27,27,27,27,27,27,0
扬州市,Yangzhou,321000,江苏省,Jiangsu,Tier 3,32.40067693609037,119.41941890822996,454.9,0,0,1,0,0,524.7116703967748,14.688821555999999,0.002133889019819173,5.860895454545457,375.3447,315.2495,60.095199999999984,1,1,1,4,5,8,8,8,13,13,14,15,15,15,17,17,18,18,18,18,20,20,21,22,23,23,23,23,23,23,23,23,23,23,23,23,23,23,23,23,23,23,23,23,23,23,23,23,23,23,23,23,23,23,23,23,23,23,23,23,23,23,23,23,23,23,23,23,23,23,0
镇江市,Zhenjiang,321100,江苏省,Jiangsu,Tier 3,32.19471592052375,119.43048944567384,320.35,0,0,1,0,0,517.9426087282468,10.086385518000002,0.001743744808317122,5.586577272727274,356.1679,301.6888,54.47909999999996,0,0,0,2,2,2,2,2,2,3,3,5,6,8,9,11,12,12,12,12,12,12,12,12,12,12,12,12,12,12,12,12,12,12,12,12,12,12,12,12,12,12,12,12,12,12,12,12,12,12,12,12,12,12,12,12,12,12,12,12,12,12,12,12,12,12,12,12,12,12,0
泰州市,Taizhou,321200,江苏省,Jiangsu,Tier 3,32.4606750493083,119.92956633785481,463.61,0,0,1,0,0,572.011569744769,14.156901198,0.0021154632855414283,5.914359090909091,375.23589999999984,325.7671,49.46879999999993,0,0,1,2,4,8,9,12,17,17,21,23,26,28,29,30,30,31,34,36,37,37,37,37,37,37,37,37,37,37,37,37,37,37,37,37,37,37,37,37,37,37,37,37,37,37,37,37,37,37,37,37,37,37,37,37,37,37,37,37,37,37,37,37,37,37,37,37,37,37,0
宿迁市,Suqian,321300,江苏省,Jiangsu,Tier 3,33.967749715690076,118.28157403570835,493.79,0,0,1,0,0,528.53843451056,7.6075203239999984,0.0025086656448161607,5.749559090909092,386.6977,330.70870000000014,55.988999999999926,0,1,1,1,3,4,4,7,8,8,9,10,11,11,12,12,12,12,12,12,12,12,12,13,13,13,13,13,13,13,13,13,13,13,13,13,13,13,13,13,13,13,13,13,13,13,13,13,13,13,13,13,13,13,13,13,13,13,13,13,13,13,13,13,13,13,13,13,13,13,0
杭州市,Hangzhou,330100,浙江省,Zhejiang,new Tier 1,30.253082981693467,120.2155118037217,1036.0,1,0,0,0,0,568.4257300909637,54.18293779800002,0.0051688534539774105,5.629718181818182,346.784,263.1168,83.66719999999998,6,12,27,27,32,51,69,85,98,110,118,132,141,151,156,162,165,155,157,159,162,165,166,166,168,168,168,169,169,169,169,169,169,169,169,169,169,169,169,169,169,169,169,169,169,169,169,169,169,169,181,182,182,183,183,183,183,183,183,183,184,184,181,181,181,181,181,181,181,181,0
宁波市,Ningbo,330200,浙江省,Zhejiang,Tier 2,29.86603304586605,121.62857249434141,854.2,0,1,0,0,0,708.8737727100722,22.86005441400001,0.0022532289436159128,5.58885909090909,356.07300000000004,280.9337,75.13929999999998,5,6,13,13,17,20,41,46,55,66,75,102,120,126,136,141,146,149,151,153,153,153,154,155,156,156,156,156,157,157,157,157,157,157,157,157,157,157,157,157,157,157,157,157,157,157,157,157,157,157,157,157,157,157,157,157,157,157,157,157,157,157,157,157,157,157,157,157,157,157,0
温州市,Wenzhou,330300,浙江省,Zhejiang,Tier 2,28.001085404472214,120.70647689035565,930.0,0,1,0,0,0,684.6017826518513,33.38067591,0.002390030151398157,4.525549999999999,291.7735,206.8764,84.8971,6,10,18,32,60,114,172,227,241,265,291,340,364,396,421,438,448,464,474,481,490,496,499,502,503,504,504,504,504,504,504,504,504,504,504,504,504,504,504,504,504,504,504,504,504,504,504,504,504,504,504,504,504,504,504,504,505,506,507,507,507,507,504,504,504,504,504,504,504,504,0
嘉兴市,Jiaxing,330400,浙江省,Zhejiang,Tier 2,30.750974830920143,120.76355182586005,480.0,0,1,0,0,0,618.4180094130579,11.85777144,0.0019362841395415518,5.185913636363637,343.2731,267.3447,75.92840000000002,3,4,8,8,11,14,16,16,18,19,19,23,27,30,35,37,38,40,40,42,42,42,43,43,43,43,44,45,45,45,45,45,45,45,45,45,45,45,45,45,45,45,45,45,45,45,45,45,45,45,45,45,45,45,45,45,45,46,46,46,47,47,45,46,46,46,46,46,46,46,0
湖州市,Huzhou,330500,浙江省,Zhejiang,Tier 3,30.898963937294184,120.09451660915786,306.0,0,0,1,0,0,554.676450665449,7.860107807999999,0.0014205994846313015,5.170236363636363,342.5164000000001,281.91189999999995,60.604500000000094,0,0,1,3,3,5,5,6,6,6,9,9,9,9,9,10,10,10,10,10,10,10,10,10,10,10,10,10,10,10,10,10,10,10,10,10,10,10,10,10,10,12,12,12,12,12,12,12,12,12,12,12,12,12,12,12,12,12,12,12,12,12,10,10,10,10,10,10,10,10,0
绍兴市,Shaoxing,330600,浙江省,Zhejiang,Tier 2,30.036369311306892,120.58547847885336,505.7,0,1,0,0,0,606.5368093495142,13.658189868000006,0.001642759198060022,5.283709090909091,349.6338,282.6666,66.96720000000005,1,4,5,6,7,19,19,23,24,27,30,30,30,33,34,36,38,41,41,41,41,42,42,42,42,42,42,42,42,42,42,42,42,42,42,42,42,42,42,42,42,42,42,42,42,42,42,42,42,42,42,42,42,42,42,42,42,42,42,42,42,42,42,42,42,42,42,42,42,42,0
金华市,Jinhua,330700,浙江省,Zhejiang,Tier 2,29.084639385513697,119.65343619052915,562.4,0,1,0,0,0,542.7492025422267,20.379193865999998,0.002263516808461224,4.727627272727274,211.2417,235.9645,-24.722800000000035,1,2,3,5,7,13,20,27,34,34,36,40,44,47,48,52,53,53,53,54,55,55,55,55,55,55,55,55,55,55,55,55,55,55,55,55,55,55,55,55,55,55,55,55,55,55,55,55,55,55,55,55,55,55,55,55,55,55,55,55,55,55,55,55,55,55,55,55,55,55,0
衢州市,Quzhou,330800,浙江省,Zhejiang,Tier 4,28.975545802265025,118.86659674035565,221.8,0,0,0,1,0,475.70266091551383,7.609891032,0.001285598688153678,5.945227272727275,307.52609999999993,335.74499999999995,-28.21890000000002,2,2,3,5,5,8,10,12,13,13,14,15,15,15,15,15,15,15,21,21,21,21,21,21,21,21,21,21,14,14,14,14,14,14,14,14,14,14,14,14,14,14,14,14,14,14,14,14,14,14,14,14,14,14,14,14,14,14,14,14,14,14,14,14,14,14,14,14,14,14,0
舟山市,Zhoushan,330900,浙江省,Zhejiang,Tier 3,29.99091168016034,122.21355631852043,117.6,0,0,1,0,0,762.9872371890822,3.7793553480000006,0.0006861514276827796,5.417272727272729,350.8593,301.9602000000001,48.899099999999926,1,2,2,4,4,6,6,7,7,7,7,7,7,7,7,7,7,7,10,10,10,10,10,10,10,10,10,10,10,10,10,10,10,10,10,10,10,10,10,10,10,10,10,10,10,10,10,10,10,10,10,10,10,10,10,10,10,10,10,10,10,10,10,10,10,10,10,10,10,10,0
台州市,Taizhou,331000,浙江省,Zhejiang,Tier 2,28.662194055996146,121.42743470427969,615.0,0,1,0,0,0,721.5976465970531,17.896104036,0.0015410451029150274,5.254122727272726,321.6392,262.0898,59.54939999999999,18,20,21,22,22,40,64,81,95,100,109,115,122,124,129,133,138,141,143,143,144,144,145,146,146,146,146,146,146,146,146,146,146,146,146,146,146,146,146,146,146,146,146,146,146,146,146,146,146,146,146,146,146,146,146,146,146,146,146,146,146,146,146,146,146,146,146,146,146,146,0
丽水市,Lishui,331100,浙江省,Zhejiang,Tier 4,28.473278180563412,119.9295730584414,221.3,0,0,0,1,0,593.2254041196433,4.5339532920000005,0.0009082466935361775,4.899159090909091,317.3405,259.0116,58.3289000000001,0,0,3,3,5,6,6,7,8,14,16,16,16,16,16,17,17,17,17,17,17,17,17,17,17,17,17,17,17,17,17,17,17,17,17,17,17,17,17,25,25,25,25,25,25,25,25,25,25,25,25,28,28,28,28,29,29,29,29,30,30,31,17,17,17,17,17,17,17,17,0
合肥市,Hefei,340100,安徽省,Anhui,new Tier 1,31.82657783368689,117.23344266497664,818.9,1,0,0,0,0,309.9241309394268,74.60757233999998,0.008202130679902345,5.575963636363635,340.8988,255.87099999999998,85.02779999999998,6,10,13,13,16,29,39,50,59,59,75,81,93,104,115,128,136,147,150,157,161,166,168,169,171,173,173,173,174,174,174,174,174,174,174,174,174,174,174,174,174,174,174,174,174,174,174,174,174,174,174,174,174,174,174,174,174,174,174,174,174,174,174,174,174,174,174,174,174,174,0
芜湖市,Wuhu,340200,安徽省,Anhui,Tier 3,31.358536655799266,118.43943137653523,377.8,0,0,1,0,0,403.1915371862262,18.809181234,0.002382880897475375,5.624677272727271,360.06590000000017,303.40240000000006,56.66350000000007,0,1,3,6,9,11,14,14,15,16,16,21,23,26,27,29,29,30,31,31,31,31,31,31,31,33,33,33,33,33,33,33,33,33,33,34,34,34,34,34,34,34,34,34,34,34,34,34,34,34,34,34,34,34,34,34,34,34,34,34,34,34,34,34,34,34,34,34,34,34,0
蚌埠市,Bengbu,340300,安徽省,Anhui,Tier 3,32.921523704350825,117.39551332813694,341.2,0,0,1,0,0,389.46323744494543,10.423181736,0.002593201861269422,5.675740909090909,385.6782,291.606,94.0722,1,1,1,3,3,3,8,15,16,26,37,43,48,64,88,99,115,126,134,141,146,149,153,157,158,158,159,160,160,160,160,160,160,160,160,160,160,160,160,160,160,160,160,160,160,160,160,160,160,160,160,160,160,160,160,160,160,160,160,160,160,160,160,160,160,160,160,160,160,160,0
淮南市,Huainan,340400,安徽省,Anhui,Tier 4,32.63184739905333,117.00638885071615,390.8,0,0,0,1,0,340.876416843662,9.464815332,0.002471544516231856,5.2993272727272736,362.4471,300.2801,62.16699999999997,0,0,1,2,2,2,6,6,6,6,7,8,12,12,14,21,22,23,24,24,23,23,23,24,25,27,27,27,27,27,27,27,27,27,27,27,27,27,27,27,27,27,27,27,27,27,27,27,27,27,27,27,27,27,27,27,27,27,27,27,27,27,27,27,27,27,27,27,27,27,0
马鞍山市,Maanshan,340500,安徽省,Anhui,Tier 3,31.676265597609106,118.5135795794315,229.14,0,0,1,0,0,418.13499172408586,11.130303635999997,0.0016997495168546266,5.527336363636364,355.5309000000001,310.4485,45.082400000000064,0,4,7,7,10,11,14,14,22,27,28,28,30,30,30,31,31,31,32,32,32,34,35,36,36,36,37,37,37,38,38,38,38,38,38,38,38,38,38,38,38,38,38,38,38,38,38,38,38,38,38,38,38,38,38,38,38,38,38,38,38,38,38,38,38,38,38,38,38,38,0
淮北市,Huaibei,340600,安徽省,Anhui,Tier 4,33.961656300276324,116.8045372670298,227.0,0,0,0,1,0,440.69084950372735,6.734269692000001,0.0022404347624794814,5.441072727272727,356.1825,281.5248,74.65770000000003,0,0,1,1,2,2,2,2,6,6,8,11,14,17,22,22,23,23,24,24,25,25,26,26,27,27,27,27,27,27,27,27,27,27,27,27,27,27,27,27,27,27,27,27,27,27,27,27,27,27,27,27,27,27,27,27,27,27,27,27,27,27,27,27,27,27,27,27,27,27,0
铜陵市,Tongling,340700,安徽省,Anhui,Tier 4,30.951233239913392,117.8184767944575,164.1,0,0,0,1,0,337.9634877046676,10.889251038,0.0014943876419925618,5.86245909090909,384.54,350.4634000000001,34.07659999999993,0,3,3,3,9,9,10,14,16,16,18,19,19,20,22,23,24,25,27,27,28,28,28,28,28,29,29,29,29,29,29,29,29,29,29,29,29,29,29,29,29,29,29,29,29,29,29,29,29,29,29,29,29,29,29,29,29,29,29,29,29,29,29,29,29,29,29,29,29,29,0
安庆市,Anqing,340800,安徽省,Anhui,Tier 3,30.53095656804304,117.0636039049188,472.3,0,0,1,0,0,264.1156061877532,66.613384098,0.003216423403839878,6.05480909090909,396.9983,354.6206,42.3777,1,4,5,8,8,14,18,18,37,43,47,55,56,60,66,71,75,78,80,80,80,81,82,82,83,83,83,83,83,83,83,83,83,83,83,83,83,83,83,83,83,83,83,83,83,83,83,83,83,83,83,83,83,83,83,83,83,83,83,83,83,83,83,83,83,83,83,83,83,83,0
黄山市,Huangshan,341000,安徽省,Anhui,Tier 4,29.721889786591692,118.3454372531478,142.1,0,0,0,1,0,400.52384878724513,6.707962188000001,0.0010520527403529876,5.960886363636362,396.4641,337.87779999999987,58.58630000000011,0,0,1,1,4,7,7,9,9,9,9,9,9,9,9,9,9,9,9,9,9,9,9,9,9,9,9,9,9,9,9,9,9,9,9,9,9,9,9,9,9,9,9,9,9,9,9,9,9,9,9,9,9,9,9,9,9,9,9,9,9,9,9,9,9,9,9,9,9,9,0
滁州市,Chuzhou,341100,安徽省,Anhui,Tier 3,32.26127087204081,118.3394061359658,414.7,0,0,1,0,0,424.9638945827366,11.9300607,0.002820555169909438,5.5510363636363635,368.8935,323.22689999999994,45.666600000000074,1,2,2,2,4,4,4,4,6,6,8,11,11,11,11,11,11,12,12,12,13,13,13,13,13,13,13,13,13,13,13,13,13,13,13,13,13,13,13,13,13,13,13,13,13,13,13,13,13,13,13,13,13,13,13,13,13,13,13,13,13,13,13,13,13,13,13,13,13,13,0
阜阳市,Fuyang,341200,安徽省,Anhui,Tier 3,32.896060994852206,115.8204361249132,1077.3,0,0,1,0,0,292.12537907737146,51.00088681800001,0.005431593901488527,6.178150000000001,425.9902,339.1763,86.81389999999998,2,7,10,10,21,23,28,38,47,59,65,79,84,95,105,113,118,125,132,138,142,146,150,152,153,154,155,155,155,155,155,155,155,155,155,155,155,155,155,155,155,155,155,155,155,155,155,155,155,155,155,155,155,155,155,155,155,155,155,155,155,155,155,155,155,155,155,155,155,155,0
宿州市,Suzhou,341300,安徽省,Anhui,Tier 3,33.652095326452134,116.97054394561262,658.27,0,0,1,0,0,421.40288787284715,14.146489134000001,0.004267973564749091,5.493449999999998,384.7273,311.4786,73.24870000000004,0,0,2,3,3,9,10,10,12,14,21,23,24,25,27,28,28,31,33,36,38,39,39,39,40,41,41,41,41,41,41,41,41,41,41,41,41,41,41,41,41,41,41,41,41,41,41,41,41,41,41,41,41,41,41,41,41,41,41,41,41,41,41,41,41,41,41,41,41,41,0
六安市,Luan,341500,安徽省,Anhui,Tier 3,31.741450815322555,116.52640966418569,487.3,0,0,1,0,0,246.2495107821744,33.632206668,0.003188503442219509,5.775272727272727,399.5049,337.0191000000001,62.485799999999934,2,2,3,3,4,6,8,9,13,13,20,30,34,36,41,51,54,57,59,59,60,61,63,65,68,68,69,69,69,69,69,69,69,69,69,69,69,69,69,69,69,69,69,69,69,69,69,69,69,69,69,69,69,69,69,69,69,69,69,69,69,69,69,69,69,69,69,69,69,69,0
亳州市,Bozhou,341600,安徽省,Anhui,Tier 4,33.850642695788835,115.78446321127451,526.3,0,0,0,1,0,386.42313136701034,16.35637617,0.003853160706319487,6.2413772727272745,439.67,381.6214,58.04860000000002,1,4,6,6,8,15,20,20,25,30,39,48,58,66,72,81,87,92,92,97,100,106,107,108,108,108,108,108,108,108,108,108,108,108,108,108,108,108,108,108,108,108,108,108,108,108,108,108,108,108,108,108,108,108,108,108,108,108,108,108,108,108,108,108,108,108,108,108,108,108,0
池州市,Chizhou,341700,安徽省,Anhui,Tier 4,30.67088379076453,117.49842096159624,148.5,0,0,0,1,0,305.6060468757575,8.779817448000001,0.0015152647961193212,5.67406818181818,370.7034,337.4801999999999,33.22320000000008,1,1,1,1,1,1,2,4,4,6,6,10,11,11,11,11,12,15,15,16,16,17,17,17,17,17,17,17,17,17,17,17,17,17,17,17,17,17,17,17,17,17,17,17,17,17,17,17,17,17,17,17,17,17,17,17,17,17,17,17,17,17,17,17,17,17,17,17,17,17,0
宣城市,Xuancheng,341800,安徽省,Anhui,Tier 4,30.94660154529291,118.76553424276743,266.1,0,0,0,1,0,428.091775757163,8.094284316000001,0.0015187737097084762,5.853727272727273,390.9057,354.181,36.72470000000004,0,0,1,1,2,2,4,4,4,4,4,4,4,5,5,5,5,6,6,6,6,6,6,6,6,6,6,6,6,6,6,6,6,6,6,6,6,6,6,6,6,6,6,6,6,6,6,6,6,6,6,6,6,6,6,6,6,6,6,6,6,6,6,6,6,6,6,6,6,6,0
福州市,Fuzhou,350100,福建省,Fujian,Tier 2,26.08042942069808,119.30346983853998,780.0,0,1,0,0,0,700.0155366191043,32.559470694000005,0.003321757824013928,4.826963636363637,288.7985,237.1664,51.63209999999998,4,6,10,17,18,24,30,32,39,44,47,53,55,56,57,59,62,63,63,64,64,66,66,68,69,71,71,71,71,71,71,71,71,71,72,72,72,72,72,72,72,72,72,72,72,72,72,72,72,72,72,72,72,72,72,72,72,72,72,72,72,72,72,72,72,72,72,72,72,72,0
厦门市,Xiamen,350200,福建省,Fujian,Tier 2,24.485406605176305,118.09643549976653,429.0,0,1,0,0,0,773.5552300072566,30.280422456000004,0.003074026436397377,5.27905,309.0563,257.8552,51.20110000000005,3,3,4,4,5,6,7,13,17,18,19,20,21,21,23,25,25,28,31,32,34,34,34,34,35,35,35,35,35,35,35,35,35,35,35,35,35,35,35,35,35,35,35,35,35,35,35,35,35,35,35,35,35,35,35,35,35,35,35,35,35,35,35,35,35,35,35,35,35,35,0
莆田市,Putian,350300,福建省,Fujian,Tier 3,25.459865455922714,119.01452097812651,291.0,0,0,1,0,0,733.3954042150986,11.635056918000002,0.0014284463309117733,4.574836363636363,285.082,248.6143,36.46770000000001,0,0,0,9,14,14,17,22,25,27,34,37,38,42,44,47,47,51,51,52,54,54,55,55,55,55,55,55,55,55,55,55,55,55,56,56,56,56,56,56,56,56,56,56,56,56,56,56,56,56,56,56,56,56,56,56,56,56,56,56,56,56,56,56,56,56,56,56,56,56,0
三明市,Sanming,350400,福建省,Fujian,Tier 4,26.26973651599184,117.64552116782144,259.0,0,0,0,1,0,580.276616370672,10.761553566,0.0014300623821305088,4.887263636363636,314.30860000000007,290.7335,23.575100000000077,0,1,4,4,8,8,10,10,10,11,11,11,11,11,12,12,13,13,13,13,13,13,13,13,14,14,14,14,14,14,14,14,14,14,14,14,14,14,14,14,14,14,14,14,14,14,14,14,14,14,14,14,14,14,14,14,14,14,14,14,14,14,14,14,14,14,14,14,14,14,0
泉州市,Quanzhou,350500,福建省,Fujian,Tier 2,24.87995233049832,118.68244626680422,874.0,0,1,0,0,0,766.159344828491,29.81199978,0.0028508938625849004,4.436918181818182,273.7278,240.0233,33.704500000000024,1,3,4,10,13,13,18,22,24,29,31,35,37,39,40,40,42,42,43,43,44,44,46,46,46,46,46,46,46,46,46,46,47,47,47,47,47,47,47,47,47,47,47,47,47,47,47,47,47,47,47,47,47,47,47,47,47,47,47,47,47,47,47,47,47,47,47,47,47,47,0
漳州市,Zhangzhou,350600,福建省,Fujian,Tier 3,24.51892979117087,117.65357645298785,516.0,0,0,1,0,0,750.0692296631997,6.5558950560000016,0.0018069159919537274,4.611122727272726,291.9583,272.6302999999999,19.328000000000085,0,3,4,4,5,6,7,8,11,12,13,13,15,16,16,16,16,16,17,19,19,19,20,20,20,20,20,20,20,20,20,20,20,20,20,20,20,20,20,20,20,20,20,20,20,20,20,20,20,20,20,20,20,20,20,20,20,20,20,20,20,20,20,20,20,20,20,20,20,20,0
南平市,Nanping,350700,福建省,Fujian,Tier 4,26.647772874203266,118.18436954814258,269.0,0,0,0,1,0,578.814391411878,8.370245484,0.0014039820090046458,4.624095454545454,304.31089999999995,253.6606,50.65029999999996,0,0,0,2,3,3,3,3,8,8,11,11,12,12,12,14,16,18,19,19,20,20,20,20,20,20,20,20,20,20,20,20,20,20,20,20,20,20,20,20,20,20,20,20,20,20,20,20,20,20,20,20,20,20,20,20,20,20,20,20,20,20,20,20,20,20,20,20,20,20,0
龙岩市,Longyan,350800,福建省,Fujian,Tier 4,25.08121984487168,117.02344756677536,264.0,0,0,0,1,0,667.1405374650736,5.2825711680000005,0.0013336601339165768,5.034072727272728,333.80299999999994,302.6892,31.11379999999991,0,0,0,0,1,1,1,1,1,1,1,2,2,2,4,5,6,6,6,6,6,6,6,6,6,6,6,6,6,6,6,6,6,6,6,6,6,6,6,6,6,6,6,6,6,6,6,6,6,6,6,6,6,6,6,6,6,6,6,6,6,6,6,6,6,6,6,6,6,6,0
宁德市,Ningde,350900,福建省,Fujian,Tier 3,26.67224171140857,119.55451074542827,291.0,0,0,1,0,0,672.250571068583,6.935226480000001,0.0013144064111225795,4.681104545454545,286.67,266.7464,19.923599999999965,1,2,3,6,6,7,8,9,9,9,12,12,14,16,16,21,23,24,24,24,25,25,25,25,25,25,26,26,26,26,26,26,26,26,26,26,26,26,26,26,26,26,26,26,26,26,26,26,26,26,26,26,26,26,26,26,26,26,26,26,26,26,26,26,26,26,26,26,26,26,0
南昌市,Nanchang,360100,江西省,Jiangxi,Tier 2,28.68945529506072,115.86458944231659,560.06,0,1,0,0,0,259.58832624381694,81.97949995200001,0.0061883795414726574,5.1937772727272735,308.31240000000014,229.3661,78.9463000000001,2,3,4,8,17,25,46,67,83,89,103,121,134,149,162,168,179,189,195,204,210,217,222,227,228,229,229,229,229,229,229,229,229,229,229,230,230,230,230,230,230,230,230,230,230,230,230,230,230,230,230,230,230,230,230,230,230,230,230,230,230,230,230,230,230,230,230,230,230,230,0
景德镇市,Jingdezhen,360200,江西省,Jiangxi,Tier 4,29.274247711040953,117.1845764463858,168.0523,0,0,0,1,0,313.8109131878645,11.732368536,0.0015236227663359672,5.7624272727272725,373.577,305.9316,67.6454,0,1,1,2,2,2,2,3,3,3,3,4,4,4,4,4,5,5,5,5,5,5,5,5,6,6,6,6,6,6,6,6,6,6,6,6,6,6,6,6,6,6,6,6,6,6,6,6,6,6,6,6,6,6,6,6,6,6,6,6,6,6,6,6,6,6,6,6,6,6,0
萍乡市,Pingxiang,360300,江西省,Jiangxi,Tier 5,27.6283927093972,113.8614964337543,194.13,0,0,0,0,1,332.09720764188523,8.445126744,0.0013215967059908153,5.228313636363636,363.9223,284.64650000000006,79.27579999999989,1,1,2,2,2,2,5,8,9,15,18,20,22,23,24,24,24,25,26,29,29,31,32,32,33,33,33,33,33,33,33,33,33,33,33,33,33,33,33,33,33,33,33,33,33,33,33,33,33,33,33,33,33,33,33,33,33,33,33,33,33,33,33,33,33,33,33,33,33,33,0
九江市,Jiujiang,360400,江西省,Jiangxi,Tier 3,29.711340559079343,116.00753491163064,492.03,0,0,1,0,0,190.6913271736089,83.51119261800001,0.003266654343354552,5.532418181818182,363.5159,286.6194000000001,76.89649999999995,1,2,2,4,9,16,31,42,43,55,64,78,86,92,95,97,100,101,101,105,109,114,115,117,117,118,118,118,118,118,118,118,118,118,118,118,118,118,118,118,118,118,118,118,118,118,118,118,118,118,118,118,118,118,118,118,118,118,118,118,118,118,118,118,118,118,118,118,118,118,0
新余市,Xinyu,360500,江西省,Jiangxi,Tier 5,27.82357869778859,114.9235346513963,119.34,0,0,0,0,1,313.26831909864137,6.338993580000001,0.0012210701334449347,5.705745454545454,392.9903000000001,253.0112,139.97910000000007,1,1,1,3,3,11,11,28,40,43,50,59,69,78,87,95,100,105,110,117,121,124,127,129,129,129,129,130,130,130,130,130,130,130,130,130,130,130,130,130,130,130,130,130,130,130,130,130,130,130,130,130,130,130,130,130,130,130,130,130,130,130,130,130,130,130,130,130,130,130,0
鹰潭市,Yingtan,360600,江西省,Jiangxi,Tier 5,28.26578706319141,117.0755754270272,118.16,0,0,0,0,1,372.50297876552116,7.235537544000001,0.001206160457058826,5.566886363636364,362.7804,310.2064000000001,52.57399999999996,0,0,0,0,1,1,3,4,4,8,8,8,9,9,10,11,11,12,14,18,18,18,18,18,18,18,18,18,18,18,18,18,18,18,18,18,18,18,18,18,18,18,18,18,18,18,18,18,18,18,18,18,18,18,18,18,18,18,18,18,18,18,18,18,18,18,18,18,18,18,0
赣州市,Ganzhou,360700,江西省,Jiangxi,Tier 3,25.83517610349765,114.9405033729825,870.8,0,0,1,0,0,531.4777447175549,26.11678221,0.0035761597162140483,5.472086363636364,365.1845,302.9352,62.24930000000001,0,2,7,7,10,16,21,27,30,34,35,42,48,52,59,64,69,71,72,72,76,76,76,76,76,76,76,76,76,76,76,76,76,76,76,76,76,76,76,76,76,76,76,76,76,76,76,76,76,76,76,76,76,76,76,76,76,76,76,76,76,76,76,76,76,76,76,76,76,76,0
吉安市,Jian,360800,江西省,Jiangxi,Tier 4,27.119726826070448,115.00051072001251,495.97,0,0,0,1,0,391.37366008361465,20.558840688000004,0.002634417504732592,5.428554545454545,333.2193000000001,294.6439,38.57540000000006,1,1,2,3,3,4,5,8,11,12,13,15,15,15,16,17,17,18,19,21,20,20,20,21,21,22,22,22,22,22,22,22,22,22,22,22,22,22,22,22,22,22,22,22,22,22,22,22,22,22,22,22,22,22,22,22,22,22,22,22,22,22,22,22,22,22,22,22,22,22,0
宜春市,Yichun,360900,江西省,Jiangxi,Tier 3,27.820856421848216,114.42356367590641,558.26,0,0,1,0,0,308.0609595470292,38.354690700000006,0.003560829029981387,5.636404545454545,387.631,296.9593000000001,90.67169999999993,0,1,5,6,10,14,14,26,29,31,36,45,48,54,62,67,74,77,83,88,95,101,102,104,106,106,106,106,106,106,106,106,106,106,106,106,106,106,106,106,106,106,106,106,106,106,106,106,106,106,106,106,106,106,106,106,106,106,106,106,106,106,106,106,106,106,106,106,106,106,0
抚州市,Fuzhou,361000,江西省,Jiangxi,Tier 4,27.954892253419565,116.36453876864373,406.03,0,0,0,1,0,354.463594139311,23.295160656,0.0023663381708621738,5.633536363636362,368.6106,319.7182,48.89239999999995,1,4,6,7,8,9,13,15,18,24,29,34,44,46,56,59,63,64,67,68,69,71,72,72,72,72,72,72,72,72,72,72,72,72,72,72,72,72,72,72,72,72,72,72,72,72,72,72,72,72,72,72,72,72,72,72,72,72,72,72,72,72,72,72,72,72,72,72,72,72,0
上饶市,Shangrao,361100,江西省,Jiangxi,Tier 3,28.46062592185173,117.94945960312224,683.3,0,0,1,0,0,424.8256220617086,27.500569361999997,0.0038528310172734593,5.586722727272727,375.1764,311.882,63.2944,0,2,6,6,7,9,11,12,16,19,32,50,69,78,86,92,98,104,111,116,119,122,123,123,123,123,123,123,123,123,123,123,123,123,123,123,123,123,123,123,123,123,123,123,123,123,123,123,123,123,123,123,123,123,123,123,123,123,123,123,123,123,123,123,123,123,123,123,123,123,0
济南市,Jinan,370100,山东省,Shandong,Tier 2,36.65655420178723,117.1263994126105,890.87,0,1,0,0,0,720.8072278050577,20.646432630000003,0.005922154744031814,5.718636363636365,333.8034,289.3958,44.4076,0,2,3,7,10,11,14,16,18,19,22,25,29,33,39,42,42,44,46,47,47,47,47,47,47,47,47,47,47,47,47,47,47,47,47,47,47,47,47,47,47,47,47,47,47,47,47,47,47,47,47,47,47,47,47,47,47,47,47,47,47,47,47,47,47,47,47,47,47,47,0
青岛市,Qingdao,370200,山东省,Shandong,new Tier 1,36.07222749666322,120.38945519114628,949.98,1,0,0,0,0,829.5127214537456,22.930148898000013,0.0035771278795829454,5.787822727272728,348.75449999999995,287.5716,61.18289999999996,3,4,6,10,13,15,18,21,21,22,25,29,34,41,43,46,47,52,53,53,53,53,56,57,57,58,59,59,59,59,59,60,60,60,60,60,60,60,60,60,60,60,60,60,60,60,60,60,61,61,61,61,61,61,61,61,61,61,61,61,61,61,61,61,61,61,61,61,61,61,0
淄博市,Zibo,370300,山东省,Shandong,Tier 3,36.81908568332188,118.06145253489895,469.7,0,0,1,0,0,772.4038970872239,7.6159184039999985,0.00219677104918242,5.874927272727274,374.9356,305.27740000000006,69.65819999999991,0,0,1,2,2,4,6,8,10,12,12,12,14,14,15,15,16,16,19,20,23,26,28,29,29,29,29,29,29,30,30,30,30,30,30,30,30,30,30,30,30,30,30,30,30,30,30,30,30,30,30,30,30,30,30,30,30,30,30,30,30,30,30,30,30,30,30,30,30,30,0
枣庄市,Zaozhuang,370400,山东省,Shandong,Tier 4,34.81599404843511,117.33054194483896,393.3,0,0,0,1,0,546.625839991312,6.641232444,0.0021985821940826667,5.930731818181817,388.9744,308.71089999999987,80.26350000000008,0,0,0,0,2,8,8,9,11,14,15,16,17,17,19,19,21,21,23,23,23,23,24,24,24,24,24,24,24,24,24,24,24,24,24,24,24,24,24,24,24,24,24,24,24,24,24,24,24,24,24,24,24,24,24,24,24,24,24,24,24,24,24,24,24,24,24,24,24,24,0
东营市,Dongying,370500,山东省,Shandong,Tier 4,37.43964182632335,118.68138493513693,217.97,0,0,0,1,0,859.2242139978054,4.505764644,0.0013683310295316644,6.366213636363634,387.6502,370.1854,17.464800000000025,0,0,0,0,0,0,0,0,0,0,0,0,0,0,0,0,0,0,0,0,0,0,0,0,0,0,0,0,0,0,0,0,0,0,0,0,0,0,0,0,0,0,0,0,0,0,0,0,0,0,0,0,0,0,0,0,0,0,0,0,0,0,0,0,0,0,0,0,0,0,0
烟台市,Yantai,370600,山东省,Shandong,Tier 2,37.47003838373053,121.45441541730196,713.8,0,1,0,0,0,1007.3071758316356,12.431792520000002,0.0020069884563445467,5.542849999999999,353.19000000000005,277.9382,75.25180000000006,0,2,2,4,8,10,13,18,20,20,22,26,26,29,31,34,36,39,41,43,46,46,46,46,47,47,47,47,47,47,47,47,47,47,47,47,47,47,47,47,47,47,47,47,47,47,47,47,47,47,47,47,47,47,47,47,47,47,47,47,47,47,47,47,47,47,47,47,47,47,0
潍坊市,Weifang,370700,山东省,Shandong,Tier 3,36.712651551267534,119.16837791142822,935.15,0,0,1,0,0,813.8599727022473,12.976077042000005,0.0029939614157058324,5.4876818181818185,353.65649999999994,278.0038,75.65269999999992,1,1,2,3,3,5,7,8,9,10,13,13,16,21,27,29,34,37,38,38,38,41,42,43,44,44,44,44,44,44,44,44,44,44,44,44,44,44,44,44,44,44,44,44,44,44,44,44,44,44,44,44,44,44,44,44,44,44,44,44,44,44,44,44,44,44,44,44,44,44,0
济宁市,Jining,370800,山东省,Shandong,Tier 3,35.420177394529645,116.59361234853986,835.6,0,0,1,0,0,575.6456415299866,14.840335619999998,0.00425581199923074,5.627245454545455,371.1331,282.3255,88.80759999999998,0,2,4,5,5,5,8,8,10,14,18,21,23,32,35,38,39,39,41,42,43,46,49,51,52,52,52,52,253,253,257,257,257,258,258,258,258,258,260,260,260,260,260,260,260,260,260,260,260,260,260,260,260,260,260,260,260,260,260,260,260,260,260,260,260,260,260,260,260,260,0
泰安市,Taian,370900,山东省,Shandong,Tier 3,36.2058580448846,117.09449483479591,563.5,0,0,1,0,0,673.5633716019908,9.121163112,0.002512577815919098,5.349895454545453,354.74759999999986,260.15880000000004,94.58879999999986,0,0,0,0,1,3,3,3,5,9,11,12,14,18,20,20,23,26,32,32,32,32,32,32,32,32,32,33,34,35,35,35,35,35,35,35,35,35,35,35,35,35,35,35,35,35,35,35,35,35,35,35,35,35,35,35,35,35,35,35,35,35,35,35,35,35,35,35,35,35,0
威海市,Weihai,371000,山东省,Shandong,Tier 3,37.516430548014796,122.12754097831323,283.6,0,0,1,0,0,1052.5153791590394,5.882705027999999,0.0010866215454813368,5.385609090909092,347.4745000000001,279.15740000000005,68.31709999999998,2,3,4,7,10,11,14,19,24,24,25,25,27,28,30,32,34,35,37,38,38,38,38,38,38,38,38,38,38,38,38,38,38,38,38,38,38,38,38,38,38,38,38,38,38,38,38,38,38,38,38,38,38,38,38,38,38,38,38,38,38,38,38,38,38,38,38,38,38,38,0
日照市,Rizhao,371100,山东省,Shandong,Tier 4,35.42283899843767,119.53341540456556,294.9,0,0,0,1,0,723.8721070341437,4.506070176000001,0.0016131273129104868,5.419363636363637,334.8124,297.4139,37.39850000000007,1,2,4,5,6,7,8,9,10,11,12,14,14,14,14,14,15,15,15,15,15,15,15,16,16,16,16,16,16,16,16,16,16,16,16,16,16,16,16,16,16,16,16,16,16,16,16,16,16,16,16,16,16,16,16,16,16,16,16,16,16,16,16,16,16,16,16,16,16,16,0
临沂市,Linyi,371300,山东省,Shandong,Tier 3,35.11067124236514,118.36353300501386,1066.71,0,0,1,0,0,627.7637444086463,15.529704264000001,0.0039242655377029695,5.530818181818181,358.8821000000001,284.81180000000006,74.07029999999997,2,3,7,7,8,15,16,20,23,24,24,27,30,32,35,38,40,42,44,45,45,47,47,47,47,48,48,49,49,49,49,49,49,49,49,49,49,49,49,49,49,49,49,49,49,49,49,49,49,49,49,49,49,49,49,49,49,49,49,49,49,49,49,49,49,49,49,49,49,49,0
德州市,Dezhou,371400,山东省,Shandong,Tier 4,37.441308454576266,116.36555674397472,574.85,0,0,0,1,0,782.313797762215,7.750133136,0.0031030074949289087,5.612963636363636,383.0053,304.2506,78.75470000000001,0,1,3,6,8,11,11,16,17,19,19,19,19,26,27,28,30,32,32,33,35,35,36,37,37,37,37,37,37,37,37,37,37,37,37,37,37,37,37,37,37,37,37,37,37,37,37,37,37,37,37,37,37,37,37,37,37,37,37,37,37,37,37,37,37,37,37,37,37,37,0
聊城市,Liaocheng,371500,山东省,Shandong,Tier 4,36.462758187694114,115.99158784830445,609.83,0,0,0,1,0,668.8555432642565,11.117534472000001,0.002864449668450945,5.546404545454545,375.0561,298.2354,76.82069999999999,0,1,1,1,3,3,5,7,7,9,9,10,12,15,20,27,33,34,37,38,38,38,38,38,38,38,38,38,38,38,38,38,38,38,38,38,38,38,38,38,38,38,38,38,38,38,38,38,38,38,38,38,38,38,38,38,38,38,38,38,38,38,38,38,38,38,38,38,38,38,0
滨州市,Binzhou,371600,山东省,Shandong,Tier 4,37.3881961960769,117.9774040171467,392.3,0,0,0,1,0,825.5881637609094,4.338140976000002,0.002066686492454698,5.876663636363636,390.74399999999986,314.2276,76.51639999999992,0,0,1,3,4,6,7,9,9,10,10,11,11,11,11,11,11,11,11,12,12,14,14,14,15,15,15,15,15,15,15,15,15,15,15,15,15,15,15,15,15,15,15,15,15,15,15,15,15,15,15,15,15,15,15,15,15,15,15,15,15,15,15,15,15,15,15,15,15,15,0
菏泽市,Heze,371700,山东省,Shandong,Tier 3,35.2394074247655,115.48754503343376,878.17,0,0,1,0,0,526.3040301569059,22.91262552,0.004115523112660857,5.165886363636363,360.929,287.52849999999995,73.40050000000008,0,0,1,3,4,7,7,7,8,8,9,10,12,12,13,14,14,16,17,18,18,18,18,18,18,18,18,18,18,18,18,18,18,18,18,18,18,18,18,18,18,18,18,18,18,18,18,18,18,18,18,18,18,18,18,18,18,18,18,18,18,18,18,18,18,18,18,18,18,18,0
郑州市,Zhengzhou,410100,河南省,Henan,new Tier 1,34.75343885045448,113.63141920733915,1035.2,1,0,0,0,0,465.17278060769036,106.73097564600002,0.015528788835499062,5.587709090909091,344.5597,230.276,114.28369999999998,3,6,20,29,37,40,46,50,56,65,72,85,92,102,112,120,126,130,132,137,141,142,144,148,151,154,156,156,157,157,157,157,157,157,157,157,157,157,157,157,157,157,157,157,157,157,157,157,158,158,158,157,157,157,157,157,157,157,157,157,157,157,157,157,157,157,157,157,157,157,0
开封市,Kaifeng,410200,河南省,Henan,Tier 4,34.802885811211716,114.3145925849712,527.77,0,0,0,1,0,466.2674534746,21.332243592,0.003864422215066847,5.580590909090909,380.6884,291.7276,88.9608,0,0,0,1,2,3,4,6,8,11,11,12,17,18,20,21,24,24,25,25,25,25,25,26,26,26,26,26,26,26,26,26,26,26,26,26,26,26,26,26,26,26,26,26,26,26,26,26,26,26,26,26,26,26,26,26,26,26,26,26,26,26,26,26,26,26,26,26,26,26,0
洛阳市,Luoyang,410300,河南省,Henan,Tier 3,34.62426277921943,112.4594212983115,717.02,0,0,1,0,0,479.0749799193274,31.163934006000005,0.003832576054036194,5.409840909090909,350.60070000000013,262.3139,88.28680000000007,1,1,1,2,2,2,2,3,5,7,7,12,17,21,24,25,25,27,28,29,30,30,31,31,31,31,31,31,31,31,31,31,31,31,31,31,31,31,31,31,31,31,31,31,31,31,31,31,31,31,31,31,31,31,31,31,31,31,31,31,31,31,31,31,31,31,31,31,31,31,0
平顶山市,Pingdingshan,410400,河南省,Henan,Tier 4,33.77205074869101,113.19952856052157,502.57,0,0,0,1,0,367.20371303146436,22.216254426000003,0.003242743550709136,5.478063636363636,365.8490000000001,279.1261,86.72290000000004,0,1,2,5,5,5,8,10,11,14,19,28,34,41,46,48,50,52,54,55,56,57,58,58,58,58,58,58,58,58,58,58,58,58,58,58,58,58,58,58,58,58,58,58,58,58,58,58,58,58,58,58,58,58,58,58,58,58,58,58,58,58,58,58,58,58,58,58,58,58,0
安阳市,Anyang,410500,河南省,Henan,Tier 4,36.10594098401491,114.39950042177428,594.79,0,0,0,1,0,610.8946705811237,22.84086519,0.0035700669314106233,5.30479090909091,354.26900000000006,249.23060000000004,105.03840000000002,0,0,3,7,11,14,16,20,24,24,29,33,35,37,40,43,44,45,46,49,50,50,51,51,51,52,52,53,53,53,53,53,53,53,53,53,53,53,53,53,53,53,53,53,53,53,53,53,53,53,53,53,53,53,53,53,53,53,53,53,53,53,53,53,53,53,53,53,53,53,0
鹤壁市,Hebi,410600,河南省,Henan,Tier 5,35.7523574114,114.30359364247649,163.15,0,0,0,0,1,571.6076212011466,7.7783227560000014,0.0014395597120867,5.53261818181818,357.2144,263.6205,93.59390000000002,0,0,0,2,2,5,6,6,6,8,8,10,10,10,11,13,17,17,18,19,19,19,19,19,19,19,19,19,19,19,19,19,19,19,19,19,19,19,19,19,19,19,19,19,19,19,19,19,19,19,19,19,19,19,19,19,19,19,19,19,19,19,19,19,19,19,19,19,19,19,0
新乡市,Xinxiang,410700,河南省,Henan,Tier 3,35.30963993033679,113.93360046733228,581.43,0,0,1,0,0,523.6798869503705,25.935330708000002,0.0039055877813187335,5.491127272727273,362.4959,269.6851,92.81080000000004,0,1,3,4,6,7,11,15,21,21,27,33,39,41,41,43,44,46,48,53,54,55,55,56,57,57,57,57,57,57,57,57,57,57,57,57,57,57,57,57,57,57,57,57,57,57,57,57,57,57,57,57,57,57,57,57,57,57,57,57,57,57,57,57,57,57,57,57,57,57,0
焦作市,Jiaozuo,410800,河南省,Henan,Tier 4,35.22096325403899,113.24854783457334,359.71,0,0,0,1,0,522.1937565780289,14.97894201,0.002408352895424267,5.725836363636363,381.1539,271.1893,109.96459999999996,0,0,0,0,2,2,2,2,2,7,8,12,15,17,18,20,24,25,28,28,29,29,30,30,32,32,32,32,32,32,32,32,32,32,32,32,32,32,32,32,32,32,32,32,32,32,32,32,32,32,32,32,32,32,32,32,32,32,32,32,32,32,32,32,32,32,32,32,32,32,0
濮阳市,Puyang,410900,河南省,Henan,Tier 4,35.76759302890629,115.03559747034215,400.89,0,0,0,1,0,577.2540275298456,13.679076852,0.002519854408026234,5.556590909090909,370.9045,273.6159,97.28859999999996,0,0,0,0,0,1,1,3,3,3,3,4,4,5,5,7,9,10,11,13,13,13,17,17,17,17,17,17,17,17,17,17,17,17,17,17,17,17,17,17,17,17,17,17,17,17,17,17,17,17,17,17,17,17,17,17,17,17,17,17,17,17,17,17,17,17,17,17,17,17,0
许昌市,Xuchang,411000,河南省,Henan,Tier 4,34.04143161161871,113.858475536855,500.48,0,0,0,1,0,384.17421959885974,24.297927534,0.003490245831137461,5.786231818181819,384.24770000000007,300.8532,83.39450000000011,0,0,0,1,2,2,3,8,12,13,15,19,24,26,28,30,31,31,32,34,34,37,37,38,38,38,39,39,39,39,39,39,39,39,39,39,39,39,39,39,39,39,39,39,39,39,39,39,39,39,39,39,39,39,39,39,39,39,39,39,39,39,39,39,39,39,39,39,39,39,0
漯河市,Luohe,411100,河南省,Henan,Tier 4,33.5877107071022,114.02342077764726,266.82,0,0,0,1,0,332.5866363608019,27.797651604000002,0.002601631447606801,5.578354545454544,365.301,273.3029,91.99810000000002,0,0,3,6,9,9,11,13,14,16,20,23,24,26,26,29,30,30,31,33,33,33,34,34,34,34,34,35,35,35,35,35,35,35,35,35,35,35,35,35,35,35,35,35,35,35,35,35,35,35,35,35,35,35,35,35,35,35,35,35,35,35,35,35,35,36,36,36,36,36,0
三门峡市,Sanmenxia,411200,河南省,Henan,Tier 5,34.778327249459984,111.20653322387408,227.65,0,0,0,0,1,547.3343620148466,7.016572188,0.0016455754929687412,5.261745454545454,345.3878,285.276,60.11180000000002,1,1,2,3,3,4,5,6,7,7,7,7,7,7,7,7,7,7,7,7,7,7,7,7,7,7,7,7,7,7,7,7,7,7,7,7,7,7,7,7,7,7,7,7,7,7,7,7,7,7,7,7,7,7,7,7,7,7,7,7,7,7,7,7,7,7,7,7,7,7,0
南阳市,Nanyang,411300,河南省,Henan,Tier 3,32.99656220465144,112.53450131351325,1003.16,0,0,1,0,0,314.6735826899593,99.81224757,0.004962128331646007,5.531913636363636,370.8263,265.3575,105.46880000000004,0,8,15,19,26,31,51,61,66,62,84,99,107,111,118,128,133,134,136,138,145,146,150,151,154,155,155,155,155,155,155,155,155,155,156,156,156,156,156,156,156,156,156,156,156,156,156,156,156,156,156,156,156,156,156,156,156,156,156,156,156,156,156,156,156,156,156,156,156,156,0
商丘市,Shangqiu,411400,河南省,Henan,Tier 3,34.4202016658586,115.66244933826236,733.36,0,0,1,0,0,442.4009444786052,47.121708203999994,0.005285137518330858,6.052040909090907,416.7624,335.2632000000001,81.49919999999997,0,0,0,6,7,14,18,27,29,36,50,60,61,65,72,76,82,83,86,86,87,88,90,91,91,91,91,91,91,91,91,91,91,91,91,91,91,91,91,91,91,91,91,91,91,91,91,91,91,91,91,91,91,91,91,91,91,91,91,91,91,91,91,91,91,91,91,91,91,91,0
信阳市,Xinyang,411500,河南省,Henan,Tier 3,32.15301454753105,114.09748283304512,646.39,0,0,1,0,0,173.56097178816452,216.42278058,0.004058585108883032,5.6633454545454525,381.347,277.71939999999995,103.62760000000004,1,5,22,23,29,32,42,49,70,88,99,112,138,164,176,192,205,220,228,231,240,243,252,261,262,266,268,269,270,273,274,274,274,274,274,274,274,274,274,274,274,274,274,274,274,274,274,274,274,274,274,274,274,274,274,274,274,274,274,274,274,274,274,274,274,274,274,274,274,274,0
周口市,Zhoukou,411600,河南省,Henan,Tier 3,33.6318288757022,114.7034825148233,866.22,0,0,1,0,0,338.3925746393765,62.671293756000004,0.006822144020378504,5.819786363636363,389.5361,325.2061,64.32999999999998,1,4,5,11,15,19,25,36,38,40,47,52,56,59,60,62,62,65,65,66,68,69,70,71,75,76,76,76,76,76,76,76,76,76,76,76,76,76,76,76,76,76,76,76,76,76,76,76,76,76,76,76,76,76,76,76,76,76,76,76,76,76,76,76,76,76,76,76,76,76,0
驻马店市,Zhumadian,411700,河南省,Henan,Tier 3,33.01784241674367,114.02847078173271,704.58,0,0,1,0,0,269.60458119706533,98.59740082200001,0.004961870131501065,5.727950000000001,381.3674,291.3427999999999,90.02460000000002,0,2,7,9,10,16,25,30,40,46,58,72,82,98,106,113,116,123,126,128,134,137,138,138,138,139,139,139,139,139,139,139,139,139,139,139,139,139,139,139,139,139,139,139,139,139,139,139,139,139,139,139,139,139,139,139,139,139,139,139,139,139,139,139,139,139,139,139,139,139,0
济源市,Jiyuan,419001,河南省,Henan,Tier 5,35.072907226846525,112.60858070620743,73.37,0,0,0,0,1,521.182122428776,2.434917024,0.0008614969650330912,6.277986363636364,410.66940000000005,289.19540000000006,121.474,0,0,0,0,0,0,0,0,0,0,2,2,2,3,4,4,4,4,4,4,4,4,4,4,5,5,5,5,5,5,5,5,5,5,5,5,5,5,5,5,5,5,5,5,5,5,5,5,5,5,5,5,5,5,5,5,5,5,5,5,5,5,5,5,5,5,5,5,5,5,0
武汉市,Wuhan,420100,湖北省,Hubei,new Tier 1,30.59846673640099,114.3115815547323,1121.2,1,0,0,0,0,,0.0,0.01189753505096783,4.653022727272727,288.4480999999999,138.6974,149.75069999999997,495,572,618,698,1590,1905,2261,2639,3215,4109,5142,6384,8351,10117,11618,13603,14982,16902,18454,19558,32994,35991,37914,39462,41152,42752,44412,45027,45346,45660,46201,46607,47071,47441,47824,48137,48557,49122,49315,49426,49540,49671,49797,49871,49912,49948,49965,49978,49986,49991,49995,49999,50003,50004,50005,50005,50005,50005,50005,50005,50006,50006,50006,50006,50006,50006,50006,50006,50006,50006,2
黄石市,Huangshi,420200,湖北省,Hubei,Tier 4,30.2052078489416,115.0455329089436,247.17,0,0,0,1,0,82.91534426374821,601.4467327860001,0.002307107510127681,5.345427272727274,346.86250000000007,205.3473,141.5152000000001,0,0,31,36,53,86,113,168,209,252,334,405,509,566,635,703,760,805,835,874,911,943,980,988,983,985,983,985,992,997,1001,1005,1008,1011,1013,1013,1013,1014,1014,1014,1014,1015,1015,1015,1015,1015,1015,1015,1015,1015,1015,1015,1015,1015,1015,1015,1015,1015,1015,1015,1015,1015,1015,1015,1015,1015,1015,1015,1015,1015,1
十堰市,Shiyan,420300,湖北省,Hubei,Tier 4,32.63506185840116,110.80452956069568,339.8,0,0,0,1,0,402.1079344669351,295.927952958,0.0020636944947667497,5.266813636363636,348.074,202.80730000000003,145.2667,1,5,20,40,65,88,119,150,177,212,256,291,318,353,395,438,467,481,505,536,562,586,597,602,612,626,638,643,656,659,667,669,671,671,671,671,671,672,672,672,672,672,672,672,672,672,672,672,672,672,672,672,672,672,672,672,672,672,672,672,672,672,672,672,672,672,672,672,672,672,1
宜昌市,Yichang,420500,湖北省,Hubei,Tier 3,30.697446484492374,111.29254921035437,413.79,0,0,1,0,0,289.5834467613802,443.195748288,0.0029437355645520373,5.353859090909091,357.6301,215.0286,142.6015,1,1,20,31,51,63,117,167,276,353,392,452,496,563,610,633,711,749,772,784,810,877,906,901,895,904,907,910,914,914,917,924,926,927,929,931,931,931,931,931,931,931,931,931,931,931,931,931,931,931,931,931,931,931,931,931,931,931,931,931,931,931,931,931,931,931,931,931,931,931,1
襄阳市,Xiangyang,420600,湖北省,Hubei,Tier 3,32.014796804669224,112.12853720100244,568.0,0,0,1,0,0,260.46717735607615,625.443646986,0.003277766578547819,5.405299999999999,365.3849,211.1568,154.22809999999996,0,0,2,36,70,131,163,286,347,441,548,632,735,787,838,907,988,1019,1063,1088,1101,1111,1128,1144,1155,1163,1165,1168,1171,1173,1173,1174,1175,1175,1175,1175,1175,1175,1175,1175,1175,1175,1175,1175,1175,1175,1175,1175,1175,1175,1175,1175,1175,1175,1175,1175,1175,1175,1175,1175,1175,1175,1175,1175,1175,1175,1175,1175,1175,1175,1
鄂州市,Ezhou,420700,湖北省,Hubei,Tier 4,30.39657217331699,114.901607388271,105.97,0,0,0,1,0,60.90493221655582,681.832443528,0.0017569469537994176,4.3329272727272725,282.9288,160.1255,122.80330000000004,0,1,1,20,57,84,123,189,227,278,306,332,382,423,471,569,639,725,790,861,1065,1125,1192,1230,1274,1339,1343,1368,1373,1375,1379,1383,1385,1387,1389,1389,1390,1391,1391,1391,1392,1394,1394,1394,1394,1394,1394,1394,1394,1394,1394,1394,1394,1394,1394,1394,1394,1394,1394,1394,1394,1394,1394,1394,1394,1394,1394,1394,1394,1394,1
荆门市,Jingmen,420800,湖北省,Hubei,Tier 4,31.041732575569625,112.20639298023,289.75,0,0,0,1,0,207.3351534824785,495.4704506640001,0.0022467514174317428,5.276872727272728,355.4126,220.0428,135.3698,8,21,38,90,114,142,191,227,251,329,345,400,422,508,553,588,663,641,656,696,927,901,902,909,915,900,901,906,912,914,918,920,920,922,923,924,924,925,927,928,928,928,928,928,928,928,928,928,928,928,928,928,928,928,928,928,928,928,928,928,928,928,928,928,928,928,928,928,928,928,1
孝感市,Xiaogan,420900,湖北省,Hubei,Tier 4,30.930689227018288,113.92251007733664,492.1,0,0,0,1,0,52.38387875348221,2075.4941973120003,0.00351785974028344,4.880259090909092,319.3251,200.4491,118.87599999999996,22,26,55,100,173,274,399,541,628,749,918,1120,1462,1886,2141,2313,2436,2541,2642,2751,2874,3009,3114,3201,3279,3320,3344,3410,3427,3429,3443,3465,3482,3501,3516,3517,3518,3518,3518,3518,3518,3518,3518,3518,3518,3518,3518,3518,3518,3518,3518,3518,3518,3518,3518,3518,3518,3518,3518,3518,3518,3518,3518,3518,3518,3518,3518,3518,3518,3518,1
荆州市,Jingzhou,421000,湖北省,Hubei,Tier 3,30.340842107742912,112.24552262926136,557.01,0,0,1,0,0,200.44303984511208,993.3106357080001,0.0043041309844852015,4.977563636363636,326.3561,220.7075,105.6486,8,10,33,47,71,101,151,221,287,333,499,613,713,801,885,941,997,1045,1075,1110,1431,1447,1478,1490,1501,1537,1541,1553,1560,1566,1574,1574,1576,1577,1579,1579,1579,1579,1580,1580,1580,1580,1580,1580,1580,1580,1580,1580,1580,1580,1580,1580,1580,1580,1580,1580,1580,1580,1580,1580,1580,1580,1580,1580,1580,1580,1580,1580,1580,1580,1
黄冈市,Huanggang,421100,湖北省,Hubei,Tier 3,30.459358857618106,114.8784904841078,633.3,0,0,1,0,0,56.549904443921044,1965.020511852,0.004202047840857393,5.017513636363637,337.0362,230.7824,106.2538,12,64,122,154,213,324,496,573,726,1002,1246,1422,1645,1807,1897,2041,2141,2252,2332,2398,2662,2791,2817,2823,2831,2828,2844,2866,2883,2899,2904,2904,2904,2904,2904,2904,2904,2905,2905,2907,2907,2907,2907,2907,2907,2907,2907,2907,2907,2907,2907,2907,2907,2907,2907,2907,2907,2907,2907,2907,2907,2907,2907,2907,2907,2907,2907,2907,2907,2907,1
咸宁市,Xianning,421200,湖北省,Hubei,Tier 4,29.84705594764649,114.32851909026844,254.84,0,0,0,1,0,83.31451198067579,807.78657537,0.001946609249882331,5.608299999999999,362.564,234.9912,127.57279999999994,0,0,43,64,91,112,130,166,206,246,296,348,384,399,443,476,493,507,515,525,534,732,840,852,861,868,832,834,834,836,836,836,836,836,836,836,836,836,836,836,836,836,836,836,836,836,836,836,836,836,836,836,836,836,836,836,836,836,836,836,836,836,836,836,836,836,836,836,836,836,1
随州市,Suizhou,421300,湖北省,Hubei,Tier 5,31.6965167723283,113.38945001822157,222.1,0,0,0,0,1,150.17589328266618,479.87338680000005,0.0016731682082563714,4.864095454545455,329.7707,191.8516,137.91909999999996,0,5,36,52,70,116,143,228,304,384,458,641,706,834,915,953,984,1049,1095,1129,1160,1206,1232,1254,1267,1278,1280,1288,1292,1296,1300,1303,1305,1306,1307,1307,1307,1307,1307,1307,1307,1307,1307,1307,1307,1307,1307,1307,1307,1307,1307,1307,1307,1307,1307,1307,1307,1307,1307,1307,1307,1307,1307,1307,1307,1307,1307,1307,1307,1307,1
恩施土家族苗族自治州,Enshi,422800,湖北省,Hubei,Tier 4,30.27793957530109,109.49459261857504,339.0,0,0,0,1,0,464.044076462738,293.442660576,0.002592319755666635,5.61225,361.8335,271.3513,90.48219999999998,0,11,17,25,38,51,66,75,87,105,111,123,138,144,157,160,171,187,195,203,229,237,244,247,249,250,249,249,250,251,251,251,251,251,251,251,252,252,252,252,252,252,252,252,252,252,252,252,252,252,252,252,252,252,252,252,252,252,252,252,252,252,252,252,252,252,252,252,252,252,1
仙桃市,Xiantao,429004,湖北省,Hubei,Tier 5,30.33358775114635,113.44960935856369,114.01,0,0,0,0,1,87.83095376699517,440.9570775779999,0.0016613393277023836,4.6017,292.0367,193.5057,98.531,2,10,11,12,27,32,55,90,97,140,169,188,225,265,307,359,379,416,438,460,480,500,514,523,531,544,562,567,568,571,571,573,575,575,575,575,575,575,575,575,575,575,575,575,575,575,575,575,575,575,575,575,575,575,575,575,575,575,575,575,575,575,575,575,575,575,575,575,575,575,1
潜江市,Qianjiang,429005,湖北省,Hubei,Tier 5,30.408357932418927,112.9054740908161,96.61,0,0,0,0,1,136.6145654089079,182.233011708,0.001268783629899576,4.645418181818184,299.5491,192.6033,106.94580000000002,0,0,0,5,7,8,10,12,27,35,35,44,54,64,74,80,82,85,90,90,94,104,116,166,182,185,185,185,188,189,191,194,195,196,197,198,198,198,198,198,198,198,198,198,198,198,198,198,198,198,198,198,198,198,198,198,198,198,198,198,198,198,198,198,198,198,198,198,198,198,1
天门市,Tianmen,429006,湖北省,Hubei,Tier 5,30.669621830099484,113.17240916632808,124.74,0,0,0,0,1,109.4931254048392,302.64765496200005,0.0015978149852918931,5.194,309.93159999999995,239.3814,70.55019999999993,0,3,5,13,23,34,44,67,82,99,115,117,128,138,163,179,197,217,261,293,362,416,422,447,485,500,486,488,492,493,494,494,495,496,496,496,496,496,496,496,496,496,496,496,496,496,496,496,496,496,496,496,496,496,496,496,496,496,496,496,496,496,496,496,496,496,496,496,496,496,1
神农架林区,Shennongjia,429021,湖北省,Hubei,Tier 5,31.75049601124641,110.68252485039976,7.8762,0,0,0,0,1,368.75748801531563,14.440611798000006,0.0005347728572308411,4.717304545454546,316.3346,220.8148,95.51980000000003,0,0,0,0,1,3,5,7,7,7,7,10,10,10,10,10,10,10,10,10,10,10,10,10,10,10,10,10,10,11,11,11,11,11,11,11,11,11,11,11,11,11,11,11,11,11,11,11,11,11,11,11,11,11,11,11,11,11,11,11,11,11,11,11,11,11,11,11,11,11,1
长沙市,Changsha,430100,湖南省,Hunan,new Tier 1,28.234889399943643,112.94547319535287,839.45,1,0,0,0,0,293.61088899113554,190.17711230400002,0.012121388382752259,4.831245454545455,310.4165,239.8676,70.54889999999997,8,8,18,22,24,46,57,68,86,112,125,148,164,179,190,196,205,213,219,223,228,238,241,241,241,241,241,242,242,242,242,242,242,242,242,242,242,242,242,242,242,242,242,242,242,242,242,242,242,242,242,242,242,242,242,242,242,242,242,242,242,242,242,242,242,242,242,242,242,242,0
株洲市,Zhuzhou,430200,湖南省,Hunan,Tier 3,27.833567639016447,113.14047079776428,402.85,0,0,1,0,0,326.9249189672825,29.568079458000003,0.003115961540261293,5.303104545454546,360.7968,284.22539999999987,76.5714000000001,1,1,3,5,7,13,18,19,22,25,26,34,38,41,46,48,58,61,68,71,75,77,78,78,78,78,78,78,78,79,80,80,80,80,80,80,80,80,80,80,80,80,80,80,80,80,80,80,80,80,80,80,80,80,80,80,80,80,80,80,80,80,80,80,80,80,80,80,80,80,0
湘潭市,Xiangtan,430300,湖南省,Hunan,Tier 4,27.83570222713559,112.9504641807647,288.2,0,0,0,1,0,333.589400874654,20.196751734000003,0.0026375516615877287,5.054286363636363,359.4632,296.8516,62.61160000000001,1,2,3,4,6,8,9,10,13,16,19,21,23,24,25,28,28,31,32,32,32,34,35,35,35,35,35,35,35,36,36,36,36,36,36,36,36,36,36,36,36,36,36,36,36,36,36,36,36,36,36,36,36,36,36,36,36,36,36,36,36,36,36,36,36,36,36,36,36,36,0
衡阳市,Hengyang,430400,湖南省,Hunan,Tier 3,26.89957613918912,112.57844721325992,730.06,0,0,1,0,0,443.50831292605017,35.686748826,0.003871082660163189,5.3960409090909085,368.58150000000006,341.34140000000014,27.240099999999984,0,3,3,4,7,17,20,25,26,30,32,35,39,43,43,43,45,45,45,45,45,46,47,47,48,48,48,48,48,48,48,48,48,48,48,48,48,48,48,48,48,48,48,48,48,48,48,48,48,48,48,48,48,48,48,48,48,48,48,48,48,48,48,48,48,48,48,48,48,48,0
邵阳市,Shaoyang,430500,湖南省,Hunan,Tier 4,27.245270272808565,111.474432885931,730.24,0,0,0,1,0,463.26793698992117,25.845731910000005,0.0040041265427197305,5.232231818181816,361.9293,328.8736,33.0557,0,2,2,8,11,19,29,36,41,49,51,55,68,74,83,86,87,89,91,94,99,100,100,101,101,101,102,102,102,102,102,102,102,102,102,102,102,102,102,102,102,102,102,102,102,102,102,102,102,102,102,102,102,102,102,102,102,102,102,102,102,102,102,102,102,102,102,102,102,102,0
岳阳市,Yueyang,430600,湖南省,Hunan,Tier 3,29.363178293925905,113.13548942422142,577.13,0,0,1,0,0,177.8534114384742,80.276280066,0.0036083391586649795,5.162463636363637,356.38800000000003,280.7798,75.60820000000002,3,5,6,7,17,26,29,37,45,53,70,83,89,93,107,111,115,124,134,146,148,149,153,154,154,155,155,156,156,156,156,156,156,156,156,156,156,156,156,156,156,156,156,156,156,156,156,156,156,156,156,156,156,156,156,156,156,156,156,156,156,156,156,156,156,156,156,156,156,156,0
常德市,Changde,430700,湖南省,Hunan,Tier 4,29.037749999406877,111.70545217995836,577.2,0,0,0,1,0,305.58181923621015,47.186935236000004,0.003415410108476097,5.2909500000000005,369.8229,302.76559999999995,67.05730000000005,0,3,7,12,19,26,30,37,39,42,45,50,56,62,64,66,66,72,73,75,77,78,78,79,79,79,79,79,80,80,82,82,82,82,82,82,82,82,82,82,82,82,82,82,82,82,82,82,82,82,82,82,82,82,82,82,82,82,82,82,82,82,82,82,82,82,82,82,82,82,0
张家界市,Zhangjiajie,430800,湖南省,Hunan,Tier 5,29.12281556255188,110.48553254695402,154.9,0,0,0,0,1,404.21508051961194,9.90098478,0.0015449829470435942,5.808936363636364,391.1191,343.9805,47.1386,0,0,0,0,0,0,1,1,2,3,3,3,3,3,5,5,5,5,5,5,5,5,5,5,5,5,5,5,5,5,5,5,5,5,5,5,5,5,5,5,5,5,5,5,5,5,5,5,5,5,5,5,5,5,5,5,5,5,5,5,5,5,5,5,5,5,5,5,5,5,0
益阳市,Yiyang,430900,湖南省,Hunan,Tier 4,28.55971117848989,112.36151595471031,442.07,0,0,0,1,0,294.55291407175696,26.936866224,0.003211286955708413,4.9658000000000015,354.0159000000001,306.6077,47.40820000000002,0,4,4,7,10,14,17,20,24,27,30,35,40,41,43,44,46,53,54,58,59,59,59,59,59,59,59,59,59,59,59,59,59,59,59,59,60,60,60,60,60,60,60,60,60,60,60,60,60,60,60,60,60,60,60,60,60,60,60,60,60,60,60,60,60,60,60,60,60,60,0
郴州市,Chenzhou,431000,湖南省,Hunan,Tier 4,25.77668327360186,113.02146049909462,475.5,0,0,0,1,0,549.1577781249315,16.16950220399999,0.0024360420060673253,5.355222727272726,360.7184,307.4260000000001,53.292399999999994,1,1,3,6,7,7,10,12,13,18,21,22,24,25,29,31,32,32,33,38,38,39,39,39,39,39,39,39,39,39,39,39,39,39,39,39,39,39,39,39,39,39,39,39,39,39,39,39,39,39,39,39,39,39,39,39,39,39,39,39,39,39,39,39,39,39,39,39,39,39,0
永州市,Yongzhou,431100,湖南省,Hunan,Tier 4,26.42586411790009,111.61945505792228,544.61,0,0,0,1,0,532.2072411312053,17.812836845999993,0.0028823849379303558,5.531922727272726,378.5098,341.7162,36.793600000000026,4,4,4,4,7,11,14,16,18,22,26,26,30,32,38,40,40,41,42,43,43,43,43,43,43,43,43,43,43,43,43,43,43,43,44,44,44,44,44,44,44,44,44,44,44,44,44,44,44,44,44,44,44,44,44,44,44,44,44,44,44,44,44,44,44,44,44,44,44,44,0
怀化市,Huaihua,431200,湖南省,Hunan,Tier 4,27.57516090297852,110.00851426537254,498.33,0,0,0,1,0,536.3744653281755,17.200974671999994,0.0031945370036581123,5.2752,350.41300000000007,306.5125,43.90050000000008,3,5,8,11,16,18,23,26,28,31,32,35,35,36,38,38,39,39,39,39,39,39,40,40,40,40,40,40,40,40,40,40,40,40,40,40,40,40,40,40,40,40,40,40,40,40,40,40,40,40,40,40,40,40,40,40,40,40,40,40,40,40,40,40,40,40,40,40,40,40,0
娄底市,Loudi,431300,湖南省,Hunan,Tier 4,27.70320859699159,112.00150349288418,394.13,0,0,0,1,0,391.7612821890458,25.251559164,0.003101343228294324,5.32619090909091,358.0018,310.6574999999999,47.344300000000096,3,5,5,7,9,13,16,20,26,29,35,40,45,51,53,59,64,66,69,69,72,73,75,75,76,76,76,76,76,76,76,76,76,76,76,76,76,76,76,76,76,76,76,76,76,76,76,76,76,76,76,76,76,76,76,76,76,76,76,76,76,76,76,76,76,76,76,76,76,76,0
湘西土家族苗族自治州,Xiangxi,433100,湖南省,Hunan,Tier 5,28.317369104701186,109.74557664946684,263.83,0,0,0,0,1,509.943999560706,11.394516564000002,0.00232395929859236,5.700400000000001,367.5797,355.1468,12.432900000000016,0,0,3,3,3,3,4,5,6,6,6,6,7,7,8,8,8,8,8,8,8,8,8,8,8,8,8,8,8,8,8,8,8,8,8,8,8,8,8,8,8,8,8,8,8,8,8,8,8,8,8,8,8,8,8,8,8,8,8,8,8,8,8,8,8,8,8,8,8,8,0
广州市,Guangzhou,440100,广东省,Guangdong,Tier 1,23.135336306695013,113.27143134445974,1530.59,1,0,0,0,0,833.3511697765326,99.73701930600004,0.00909453107471352,4.226518181818182,268.7042,196.25080000000003,72.45339999999999,7,14,17,39,51,63,79,106,137,175,189,216,237,255,284,298,304,313,317,323,327,328,335,338,339,339,339,339,339,343,345,345,346,346,346,346,346,346,346,346,346,346,347,347,347,347,347,347,347,347,347,347,348,351,354,359,364,366,369,372,384,388,397,406,414,420,427,431,440,446,0
韶关市,Shaoguan,440200,广东省,Guangdong,Tier 4,24.815881278583017,113.6035273456226,303.04,0,0,0,1,0,644.5868799288507,7.018538867999999,0.0014912149660223175,4.867445454545456,327.3315,289.6168,37.71469999999999,3,3,4,4,4,4,4,4,4,5,5,6,6,6,6,6,6,6,7,7,8,8,10,10,10,10,10,10,10,10,10,10,10,10,10,10,10,10,10,10,10,10,10,10,10,10,10,10,10,10,10,10,10,10,10,10,10,10,10,10,10,10,10,10,10,10,10,10,10,10,0
深圳市,Shenzhen,440300,广东省,Guangdong,Tier 1,22.548456637984177,114.06455183658753,1343.88,1,0,0,0,0,892.2631516637434,96.323873706,0.006303104633588986,4.337068181818182,259.6129,193.7077,65.90520000000004,15,20,31,36,49,63,86,110,170,196,226,269,289,314,334,351,364,368,375,386,391,400,406,414,415,416,416,416,416,417,417,417,417,417,417,417,417,417,418,418,418,418,418,419,419,419,419,419,420,420,420,421,423,423,425,427,432,436,439,439,440,441,443,444,446,447,449,450,451,451,0
珠海市,Zhuhai,440400,广东省,Guangdong,Tier 2,22.27656465424921,113.58255478654918,202.37,0,1,0,0,0,924.8870159593337,18.44406612,0.0016525069537125859,4.738145454545454,284.3967,231.857,52.53970000000001,8,10,12,12,12,14,18,26,38,41,51,64,69,73,73,82,83,85,86,87,89,91,95,96,97,98,98,98,98,98,98,98,98,98,98,98,98,98,98,98,98,98,98,98,98,98,98,98,98,98,98,98,98,98,98,98,99,100,101,101,101,101,101,102,102,103,103,103,103,103,0
汕头市,Shantou,440500,广东省,Guangdong,Tier 3,23.35909171772515,116.6885286405483,566.48,0,0,1,0,0,836.0596020604837,6.9141758760000025,0.001676698677477584,3.78205,244.9853,219.8943,25.09099999999998,0,1,2,2,5,6,12,12,14,14,17,18,20,20,22,25,25,25,25,25,25,25,25,25,25,25,25,25,25,25,25,25,25,25,25,25,25,25,25,25,25,25,25,25,25,25,25,25,25,25,25,25,25,25,25,25,25,25,25,25,25,25,25,25,25,25,25,25,25,25,0
佛山市,Foshan,440600,广东省,Guangdong,new Tier 1,23.02775875078891,113.12851219549721,815.86,1,0,0,0,0,847.0310191986423,22.536275706000005,0.004310528524655377,4.303072727272727,280.9269,214.5269,66.40000000000003,6,9,10,14,18,18,25,32,38,39,43,46,49,50,57,60,65,68,70,78,81,82,84,84,84,84,84,84,84,84,84,84,84,84,84,84,84,84,84,84,84,84,84,84,84,84,84,84,84,84,84,84,85,85,85,85,87,87,87,89,91,91,91,91,92,92,92,93,94,94,0
江门市,Jiangmen,440700,广东省,Guangdong,Tier 3,22.584603880965,113.08855619524044,463.03,0,0,1,0,0,896.2166844175661,5.6129209200000005,0.001485432276262819,4.755354545454545,313.76359999999994,266.1739,47.58969999999994,0,0,0,0,0,0,1,1,3,3,4,6,7,9,11,14,17,19,20,21,22,22,22,23,23,23,23,23,23,23,23,23,23,23,23,23,23,23,23,23,23,23,23,23,23,23,23,23,23,23,23,23,23,23,23,23,23,23,23,23,23,23,23,23,23,23,23,23,23,23,0
湛江市,Zhanjiang,440800,广东省,Guangdong,Tier 3,21.276723439012073,110.36555441392824,736.0,0,0,1,0,0,1105.53102062512,10.192646502,0.0029933067321631385,5.194327272727271,350.7821,324.7458,26.03630000000004,2,2,4,5,5,7,9,11,13,14,14,15,18,19,19,20,21,21,21,21,21,22,22,22,22,22,22,22,22,22,22,22,22,22,22,22,22,22,22,22,22,22,22,22,22,22,22,22,22,22,22,22,22,22,22,22,22,22,23,23,23,23,23,24,24,24,24,24,24,24,0
茂名市,Maoming,440900,广东省,Guangdong,Tier 4,21.669064031332088,110.931542579969,641.15,0,0,0,1,0,1045.259899829924,4.349926476,0.002498733946572905,4.850872727272726,347.99820000000017,311.847,36.15120000000013,0,0,0,0,0,2,3,3,3,3,4,5,6,6,6,6,9,10,11,13,13,13,13,13,14,14,14,14,14,14,14,14,14,14,14,14,14,14,14,14,14,14,14,14,14,14,14,14,14,14,14,14,14,14,14,14,14,14,14,14,14,14,14,14,14,14,14,14,14,14,0
肇庆市,Zhaoqing,441200,广东省,Guangdong,Tier 3,23.05288877112561,112.47148894063037,418.71,0,0,1,0,0,855.7891071849402,3.652077456,0.001788744048816985,4.394327272727273,306.9711000000001,232.0838,74.88730000000002,1,2,4,4,4,5,5,6,6,7,7,10,11,13,14,14,14,14,15,16,16,17,17,17,17,18,18,18,18,19,19,19,19,19,19,19,19,19,19,19,19,19,19,19,19,19,19,19,19,19,19,19,19,19,19,20,20,20,20,20,20,20,20,20,20,20,20,20,20,20,0
惠州市,Huizhou,441300,广东省,Guangdong,Tier 2,23.116358854725593,114.42355801658172,488.0,0,1,0,0,0,829.108704453304,16.339915674,0.002523911170439935,3.858377272727273,253.4412,195.3925,58.0487,5,7,8,8,11,12,17,17,20,23,28,29,31,35,39,41,47,50,53,54,55,56,58,58,58,59,62,62,62,62,62,62,62,62,62,62,62,62,62,62,62,62,62,62,62,62,62,62,62,62,62,62,62,62,62,62,62,62,62,62,62,62,62,62,62,62,62,62,62,62,0
梅州市,Meizhou,441400,广东省,Guangdong,Tier 4,24.294177532206213,116.1295373761225,438.3,0,0,0,1,0,721.2928497417087,3.3553018800000003,0.0014533811889953072,4.71165,325.1432000000001,294.8895,30.25370000000009,0,0,1,1,3,4,5,5,5,6,7,9,10,12,12,13,13,13,13,13,13,14,15,16,16,16,16,16,16,16,16,16,16,16,16,16,16,16,16,16,16,16,16,16,16,16,16,16,16,16,16,16,16,16,16,17,17,17,17,17,17,17,17,17,17,17,17,17,17,17,0
汕尾市,Shanwei,441500,广东省,Guangdong,Tier 4,22.79126303654673,115.38155260365083,301.5,0,0,0,1,0,871.5481220603557,1.514121984,0.0009407044911837174,4.022931818181818,267.82680000000005,255.3279,12.498900000000047,0,0,0,1,1,1,1,3,4,4,5,5,5,5,5,5,5,5,5,5,5,5,5,5,5,5,5,5,5,5,5,5,5,5,5,5,5,5,5,5,5,5,5,5,5,5,5,5,5,5,5,5,5,5,5,5,5,5,5,5,5,5,5,5,5,5,5,5,5,5,0
河源市,Heyuan,441600,广东省,Guangdong,Tier 4,23.74968437095975,114.7074462729064,310.56,0,0,0,1,0,759.9045139036995,2.310781284,0.001191934403542888,4.532240909090908,303.4634999999999,265.8412,37.62229999999994,0,0,0,0,0,1,1,1,1,1,1,1,1,1,2,3,3,3,3,3,3,3,3,3,4,4,4,4,4,4,4,4,4,4,4,4,4,4,4,4,4,4,4,4,4,4,4,4,4,4,4,4,4,4,4,4,4,4,4,4,4,4,4,4,4,4,4,4,4,4,0
阳江市,Yangjiang,441700,广东省,Guangdong,Tier 4,21.864339726138937,111.98848929181268,257.09,0,0,0,1,0,995.0391691596536,3.3661118160000005,0.0011191375990330706,5.105545454545455,338.0409,313.8797,24.161200000000008,3,5,8,8,8,10,10,10,10,10,10,12,12,13,13,13,13,13,13,13,13,13,13,13,13,13,13,13,13,13,13,14,14,14,14,14,14,14,14,14,14,14,14,14,14,14,14,14,14,14,14,14,14,14,14,14,14,14,14,14,14,14,14,14,14,14,14,14,14,14,0
清远市,Qingyuan,441800,广东省,Guangdong,Tier 3,23.688230292088083,113.06246832527266,388.6,0,0,1,0,0,775.6253572498822,5.227119216000001,0.0018575127258574765,4.6904499999999985,322.7978,280.0433,42.75450000000001,1,2,3,3,5,6,6,6,6,6,6,8,10,10,10,10,10,10,10,12,12,12,12,12,12,12,12,12,12,12,12,12,12,12,12,12,12,12,12,12,12,12,12,12,12,12,12,12,12,12,12,12,12,12,12,12,12,12,12,12,12,12,12,12,12,12,12,12,12,12,0
东莞市,Dongguan,441900,广东省,Guangdong,new Tier 1,23.02730841164339,113.7584204578765,846.45,1,0,0,0,0,840.6921475181972,27.16338726,0.004276577255162179,3.5297181818181813,225.4656,174.02669999999995,51.43890000000005,0,1,2,2,2,7,7,16,21,27,31,37,44,47,53,56,58,60,62,67,70,73,81,89,89,91,91,92,93,93,94,96,97,97,97,98,99,99,99,99,99,99,99,99,99,99,100,100,100,100,100,100,100,100,100,100,100,100,100,100,100,100,100,100,100,100,100,100,100,100,0
中山市,Zhongshan,442000,广东省,Guangdong,Tier 2,22.5223146707905,113.39942236263187,338.0,0,1,0,0,0,899.4099536373352,11.145600972,0.00222273722375735,4.246304545454545,276.3898000000001,208.3981,67.99170000000011,2,2,2,4,6,12,16,18,18,21,25,31,35,44,46,46,51,56,58,62,64,64,65,65,66,66,66,66,66,66,66,66,66,66,66,66,66,66,66,66,66,66,66,66,66,66,66,66,68,68,68,68,68,68,68,68,68,68,68,68,68,68,68,68,68,68,68,68,68,68,0
潮州市,Chaozhou,445100,广东省,Guangdong,Tier 3,23.66262319261589,116.62947017362819,265.98,0,0,1,0,0,802.082500414165,2.378660904,0.0010341019723099454,3.744504545454546,243.8849,227.08520000000004,16.799699999999945,0,0,0,0,0,0,0,0,3,3,4,4,4,5,5,5,5,5,5,5,5,5,5,5,5,5,5,5,5,5,5,5,5,5,5,5,5,5,5,5,5,5,5,5,5,5,5,5,5,5,5,5,5,5,5,5,5,5,5,6,6,6,6,6,6,6,6,6,6,6,0
揭阳市,Jieyang,445200,广东省,Guangdong,Tier 3,23.555740488275585,116.37851218033846,610.5,0,0,1,0,0,806.7944722556775,4.231675548000001,0.001623410851862389,3.8814318181818175,255.5754,251.0663,4.509100000000019,0,0,3,3,4,6,6,6,6,6,6,6,6,7,7,7,7,7,8,8,8,8,8,8,8,8,8,8,8,8,8,8,8,8,8,8,8,8,8,8,8,8,8,8,8,8,8,8,8,8,8,8,8,8,8,8,9,9,9,9,9,9,9,9,9,9,9,9,9,9,0
云浮市,Yunfu,445300,广东省,Guangdong,Tier 5,22.920911970342857,112.05151269959144,254.52,0,0,0,0,1,879.8033110158664,1.026612468,0.0011909304986860026,4.567359090909092,319.5156,294.9085,24.607100000000006,0,0,0,0,0,0,0,0,0,0,0,0,0,0,0,0,0,0,0,0,0,0,0,0,0,0,0,0,0,0,0,0,0,0,0,0,0,0,0,0,0,0,0,0,0,0,0,0,0,0,0,0,0,0,0,0,0,0,0,0,0,0,0,0,0,0,0,0,0,0,0
南宁市,Nanning,450100,广西壮族自治区,Guangxi,Tier 2,22.82260660118716,108.3734508258186,734.48,0,1,0,0,0,1044.2411622824734,34.08012711,0.007733121872509756,5.228618181818182,332.2157,264.074,68.14170000000001,0,0,1,5,5,7,15,16,16,16,22,27,28,30,31,32,35,37,41,44,44,47,49,50,51,54,54,54,54,55,55,55,55,55,55,55,55,55,55,55,55,55,55,55,55,55,55,55,55,55,55,55,55,55,55,55,55,55,55,55,55,55,55,55,55,55,55,55,55,55,0
柳州市,Liuzhou,450200,广西壮族自治区,Guangxi,Tier 3,24.331961386852413,109.43442194634564,407.8,0,0,1,0,0,845.0673101719904,14.38078131,0.003135360033531394,5.4095818181818185,348.53580000000005,296.444,52.091800000000035,2,3,4,6,6,6,10,11,12,12,14,15,17,20,20,20,20,22,22,22,22,22,24,24,24,24,24,24,24,24,24,24,24,24,24,24,24,24,24,24,24,24,24,24,24,24,24,24,24,24,24,24,24,24,24,24,24,24,24,24,24,24,24,24,24,24,24,24,24,24,0
桂林市,Guilin,450300,广西壮族自治区,Guangxi,Tier 3,25.242885724872647,110.20354537457943,540.6,0,0,1,0,0,717.9973084981465,21.384489888000004,0.0031928863585511487,5.412004545454545,363.8136,294.3536000000001,69.45999999999998,2,6,11,14,15,16,18,18,21,23,24,24,26,27,28,29,29,30,30,31,31,31,31,31,31,31,31,31,31,32,32,32,32,32,32,32,32,32,32,32,32,32,32,32,32,32,32,32,32,32,32,32,32,32,32,32,32,32,32,32,32,32,32,32,32,32,32,32,32,32,0
梧州市,Wuzhou,450400,广西壮族自治区,Guangxi,Tier 5,23.48274528113516,111.28551681182014,307.7,0,0,0,0,1,843.5643856708739,5.5382214240000005,0.0018326265422525703,5.360368181818182,368.7725,337.7809000000001,30.991600000000005,1,1,2,2,4,4,4,4,5,5,5,5,5,5,5,5,5,5,5,5,5,5,5,5,5,5,5,5,5,5,5,5,5,5,5,5,5,5,5,5,5,5,5,5,5,5,5,5,5,5,5,5,5,5,5,5,5,5,5,5,5,5,5,5,5,5,5,5,5,5,0
北海市,Beihai,450500,广西壮族自治区,Guangxi,Tier 4,21.48683649576942,109.12653321256599,168.0,0,0,0,1,0,1134.6024172748853,15.654417372000001,0.001787026954649581,5.390404545454545,345.1909,274.3205,70.87040000000002,6,6,7,9,11,13,15,17,23,23,26,27,29,31,31,32,33,35,36,39,39,40,43,43,43,44,44,44,44,44,44,44,44,44,44,44,44,44,44,44,44,44,44,44,44,44,44,44,44,44,44,44,44,44,44,44,44,44,44,44,44,44,44,44,44,44,44,44,44,44,0
防城港市,Fangchenggang,450600,广西壮族自治区,Guangxi,Tier 5,21.693005289969395,108.360418838298,96.36,0,0,0,0,1,1151.6545862874568,2.4044101560000004,0.0011694335802660337,5.04615909090909,313.41170000000005,261.6768,51.73490000000004,0,2,2,3,3,5,5,7,8,8,9,11,13,15,15,16,16,17,17,17,17,17,17,18,18,18,18,19,19,19,19,19,19,19,19,19,19,19,19,19,19,19,19,19,19,19,19,19,19,19,19,19,19,19,19,19,19,19,19,19,19,19,19,19,19,19,19,19,19,19,0
钦州市,Qinzhou,450700,广西壮族自治区,Guangxi,Tier 5,21.986593539484296,108.66058016842224,332.41,0,0,0,0,1,1108.0593924651027,3.499317936,0.002280289361334127,5.106163636363637,347.2829000000001,304.01790000000005,43.26499999999999,0,0,0,0,0,0,1,1,1,2,2,3,4,7,7,8,8,8,8,8,8,8,8,8,8,8,8,8,8,8,8,8,8,8,8,8,8,8,8,8,8,8,8,8,8,8,8,8,8,8,8,8,8,8,8,8,8,8,8,8,8,8,8,8,8,8,8,8,8,8,0
贵港市,Guigang,450800,广西壮族自治区,Guangxi,Tier 5,23.11744838203753,109.60552031033306,443.08,0,0,0,0,1,951.447286183228,7.820470944,0.0027153010920160183,5.287968181818182,361.39380000000006,322.5439,38.84990000000005,0,0,0,0,0,0,0,0,0,4,5,5,5,7,7,7,7,8,8,8,8,8,8,8,8,8,8,8,8,8,8,8,8,8,8,8,8,8,8,8,8,8,8,8,8,8,8,8,8,8,8,8,8,8,8,8,8,8,8,8,8,8,8,8,8,8,8,8,8,8,0
玉林市,Yulin,450900,广西壮族自治区,Guangxi,Tier 4,22.659830509953146,110.1884531233724,587.78,0,0,0,1,0,970.4455111910955,8.960538492000001,0.003447277829478585,5.100709090909091,352.6835,302.732,49.95149999999995,0,1,1,2,2,2,2,4,5,7,8,8,8,8,8,9,9,9,9,9,9,9,10,10,10,10,11,11,11,11,11,11,11,11,11,11,11,11,11,11,11,11,11,11,11,11,11,11,11,11,11,11,11,11,11,11,11,11,11,11,11,11,11,11,11,11,11,11,11,11,0
百色市,Baise,451000,广西壮族自治区,Guangxi,Tier 5,23.90818593429596,106.62458932565384,368.74,0,0,0,0,1,1061.9441635376145,3.216001968,0.0024444779165707915,5.78865909090909,380.9612,363.5187,17.442500000000052,1,1,2,2,2,2,2,2,2,2,2,2,2,2,3,3,3,3,3,3,3,3,3,3,3,3,3,3,3,3,3,3,3,3,3,3,3,3,3,3,3,3,3,3,3,3,3,3,3,3,3,3,3,3,3,3,3,3,3,3,3,3,3,3,3,3,3,3,3,3,0
贺州市,Hezhou,451100,广西壮族自治区,Guangxi,Tier 5,24.409450902865487,111.57352631416218,208.53,0,0,0,0,1,737.1621616534973,5.034966804000001,0.0014228040962218106,5.339318181818182,363.5644,312.5549000000001,51.0095,0,0,0,0,0,0,1,1,1,3,4,4,4,4,4,4,4,4,4,4,4,4,4,4,4,4,4,4,4,4,4,4,4,4,4,4,4,4,4,4,4,4,4,4,4,4,4,4,4,4,4,4,4,4,4,4,4,4,4,4,4,4,4,4,4,4,4,4,4,4,0
河池市,Hechi,451200,广西壮族自治区,Guangxi,Tier 5,24.698911731272894,108.0914999449866,356.36,0,0,0,0,1,896.3534921406473,4.867650288,0.0024924006628647645,5.517227272727271,361.96390000000014,334.8431,27.12080000000009,1,3,3,3,3,3,5,6,6,6,6,8,9,11,11,15,19,21,21,21,21,21,22,22,22,22,23,23,24,25,25,27,28,28,28,28,28,28,28,28,28,28,28,28,28,28,28,28,28,28,28,28,28,28,28,28,28,28,28,28,28,28,28,28,28,28,28,28,28,28,0
来宾市,Laibin,451300,广西壮族自治区,Guangxi,Tier 5,23.756546762607282,109.22745819590092,224.43,0,0,0,0,1,909.964312217015,3.766603356,0.0021312947699760835,5.47935,364.8053,334.3297,30.475599999999986,0,0,0,0,0,0,0,0,0,0,0,0,0,1,2,3,7,11,11,11,11,11,11,11,11,11,11,11,11,11,11,11,11,11,11,11,11,11,11,11,11,11,11,11,11,11,11,11,11,11,11,11,11,11,11,11,11,11,11,11,11,11,11,11,11,11,11,11,11,11,0
崇左市,Chongzuo,451400,广西壮族自治区,Guangxi,Tier 5,22.383117234663306,107.3715202061015,211.03,0,0,0,0,1,1142.6797820973813,1.986778692,0.001656210603282526,5.1490136363636365,354.8738,316.7698,38.10399999999999,0,0,0,0,0,0,0,0,0,0,0,0,0,0,0,0,0,0,0,0,0,0,0,0,0,0,0,0,0,0,0,0,0,0,0,0,0,0,0,0,0,0,0,0,0,0,0,0,0,0,0,0,0,0,0,0,0,0,0,0,0,0,0,0,0,0,0,0,0,0,0
海口市,Haikou,460100,海南省,Hainan,Tier 3,20.04404943925674,110.32552547126407,232.79,0,0,1,0,0,1235.8658587040193,22.04924733,0.008267724434732459,5.456631818181819,311.5227000000001,240.2117,71.31100000000005,3,3,3,6,7,9,9,9,11,11,13,14,16,16,19,23,23,28,29,29,29,29,33,33,33,34,34,39,39,39,39,39,39,39,39,39,39,39,39,39,39,39,39,39,39,39,39,39,39,39,39,39,39,39,39,39,39,39,39,39,39,39,39,39,39,39,39,39,39,39,0
三亚市,Sanya,460200,海南省,Hainan,Tier 3,18.25873629174785,109.51855670139908,63.4369,0,0,1,0,0,1450.175322284816,21.882884832,0.004294128331632218,6.5531181818181805,322.8214,295.7094,27.111999999999966,2,5,8,10,14,14,14,14,15,17,17,18,22,30,32,37,40,41,45,46,54,54,54,54,54,54,54,54,54,54,54,54,54,54,54,54,54,54,54,54,54,54,54,54,54,54,54,54,54,54,54,54,54,54,54,54,54,54,54,54,54,54,54,54,54,54,54,54,54,54,0
三沙市,Sansha,460300,海南省,Hainan,Tier 5,16.838953334409126,112.34048204137058,,0,0,0,0,1,1537.071043455855,0.00646542,0.000427397406903966,5.2060818181818185,262.4055,263.05920000000003,-0.6537000000000717,0,0,0,0,0,0,0,0,0,0,0,0,0,0,0,0,0,0,0,0,0,0,0,0,0,0,0,0,0,0,0,0,0,0,0,0,0,0,0,0,0,0,0,0,0,0,0,0,0,0,0,0,0,0,0,0,0,0,0,0,0,0,0,0,0,0,0,0,0,0,0
儋州市,Danzhou,460400,海南省,Hainan,Tier 5,19.5271461100442,109.58745583568613,92.07,0,0,0,0,1,1315.3542403869988,2.9571334200000003,0.00206068132592267,5.4955181818181815,355.1824,303.0569,52.12549999999999,0,3,3,4,5,5,5,5,6,6,7,8,8,10,11,11,11,11,11,11,15,15,15,15,15,15,15,15,15,15,15,15,15,15,15,15,15,15,15,15,15,15,15,15,15,15,15,15,15,15,15,15,15,15,15,15,15,15,15,15,15,15,15,15,15,15,15,15,15,15,0
五指山市,Wuzhishan,469001,海南省,Hainan,Tier 5,18.780994100706135,109.52354032070568,10.71,0,0,0,0,1,1395.3413396423275,0.346574376,0.0007179869594087037,4.253540909090908,253.7463,249.1532,4.593100000000021,0,0,0,0,0,0,0,0,0,0,0,0,0,0,0,0,0,0,0,0,0,0,0,0,0,0,0,0,0,0,0,0,0,0,0,0,0,0,0,0,0,0,0,0,0,0,0,0,0,0,0,0,0,0,0,0,0,0,0,0,0,0,0,0,0,0,0,0,0,0,0
琼海市,Qionghai,469002,海南省,Hainan,Tier 5,19.26425401991763,110.4805445259504,52.14,0,0,0,0,1,1313.5061618191667,3.8351432880000003,0.0016128359300812093,5.445286363636364,333.4227,295.15989999999994,38.262800000000034,0,0,0,0,1,1,3,4,4,6,6,6,6,6,6,6,6,6,6,6,6,6,6,6,6,6,6,6,6,6,6,6,6,6,6,6,6,6,6,6,6,6,6,6,6,6,6,6,6,6,6,6,6,6,6,6,6,6,6,6,6,6,6,6,6,6,6,6,6,6,0
文昌市,Wenchang,469005,海南省,Hainan,Tier 5,19.549062083120717,110.80450870631745,57.52,0,0,0,0,1,1273.870943311988,2.2873376160000003,0.001724822691084535,5.501472727272726,350.4073,330.3055,20.101800000000022,0,0,0,0,0,0,0,0,0,0,1,1,1,1,3,3,3,3,3,3,3,3,3,3,3,3,3,3,3,3,3,3,3,3,3,3,3,3,3,3,3,3,3,3,3,3,3,3,3,3,3,3,3,3,3,3,3,3,3,3,3,3,3,3,3,3,3,3,3,3,0
万宁市,Wanning,469006,海南省,Hainan,Tier 5,18.800106988303387,110.39943436554806,58.5,0,0,0,0,1,1365.2253058714114,2.1705048360000005,0.0016574545604877053,5.811727272727271,374.6574,333.0355,41.62190000000004,2,5,5,7,7,8,8,8,8,8,9,11,11,11,11,12,12,12,13,13,13,13,13,13,13,13,13,13,13,13,13,13,13,13,13,13,13,13,13,13,13,13,13,13,13,13,13,13,13,13,13,13,13,13,13,13,13,13,13,13,13,13,13,13,13,13,13,13,13,13,0
东方市,Dongfang,469007,海南省,Hainan,Tier 5,19.10110473128863,108.65856652679173,43.45,0,0,0,0,1,1395.2280040234662,1.1442571920000002,0.0012692747070133516,6.119363636363636,357.9161000000001,352.5404000000001,5.375699999999995,0,0,0,0,1,1,1,1,1,1,1,2,2,3,3,3,3,3,3,3,3,3,3,3,3,3,3,3,3,3,3,3,3,3,3,3,3,3,3,3,3,3,3,3,3,3,3,3,3,3,3,3,3,3,3,3,3,3,3,3,3,3,3,3,3,3,3,3,3,3,0
